"","lon","lat","NAME","type","inmates"
"1",-119.7891118,36.01376,"Stratford CCD","state_pris",12118
"2",-73.852939,40.8487111,"Bronx borough","local_jail",11939
"3",-95.8037646,31.8909606,"Montalba-Tennessee Colony CCD","state_pris",11854
"4",-111.2133547,32.7917151,"Florence CCD","state_pris",11384
"5",-119.200331,35.6854889,"Delano-McFarland CCD","state_pris",11120
"6",-121.435605,36.5497179,"Gonzales CCD","state_pris",10048
"7",-95.3887412,29.8014132,"Houston CCD","local_jail",9667
"8",-87.6814255,41.8357431,"Chicago city","local_jail",9507
"9",-75.1333459,40.0093755,"Philadelphia city","local_jail",8828
"10",-120.5515526,40.4032247,"Susanville CCD","state_pris",8110
"11",-97.701935,31.4329075,"Gatesville CCD","state_pris",8082
"12",-112.0273165,33.5161731,"Phoenix CCD","local_jail",7902
"13",-122.000056,38.4097197,"Vacaville CCD","state_pris",7810
"14",-115.3758748,33.7954484,"Chuckwalla Valley CCD","state_pris",7634
"15",-118.3598178,33.9958488,"Los Angeles CCD","local_jail",7547
"16",-95.4888756,29.2401918,"Angleton CCD","state_pris",7339
"17",-120.2474974,37.0820179,"Chowchilla CCD","state_pris",7316
"18",-95.6655801,30.7050371,"Huntsville CCD","state_pris",7232
"19",-97.6847383,28.4270428,"Beeville CCD","state_pris",7073
"20",-118.57729,34.5395282,"Newhall CCD","local_jail",6920
"21",-84.424568,42.2960734,"Blackman charter township","state_pris",6776
"22",-121.1416355,38.6665966,"Folsom CCD","state_pris",6676
"23",-120.6790891,35.2348219,"San Luis Obispo CCD","state_pris",6428
"24",-120.0793193,35.9048358,"Avenal CCD","state_pris",6423
"25",-82.1138497,28.8636888,"Wildwood CCD","fed_pris",6395
"26",-96.6883192,32.8294489,"Northeast Dallas CCD","local_jail",6380
"27",-118.517561,35.1188191,"Tehachapi CCD","state_pris",5903
"28",-76.6105159,39.3002135,"Baltimore city","state_pris",5830
"29",-81.2019277,34.1336764,"Dutch Fork CCD","state_pris",5733
"30",-119.7489717,35.6450736,"Wasco CCD","state_pris",5710
"31",-117.3192878,34.0951263,"San Bernardino CCD","local_jail",5464
"32",-83.0564225,39.4226625,"Union township","state_pris",5447
"33",-115.1158559,36.1295524,"Las Vegas CCD","local_jail",5411
"34",-101.7919801,35.2351324,"Amarillo CCD","state_pris",5298
"35",-95.4785202,30.8598617,"Riverside CCD","state_pris",5267
"36",-91.5534658,30.97181,"District 4","state_pris",5147
"37",-112.6988263,32.8484719,"Gila Bend CCD","state_pris",5084
"38",-116.2042075,43.3279423,"Orchard CCD","state_pris",5070
"39",-82.5308195,40.76672,"Mansfield township","state_pris",5051
"40",-85.0746328,42.976821,"Ionia city","state_pris",5033
"41",-120.4089333,36.204251,"Coalinga CCD","state_pris",4930
"42",-117.8596987,33.8278381,"Anaheim-Santa Ana-Garden Grove CCD","local_jail",4878
"43",-105.2303401,38.4550467,"Cañon City CCD","state_pris",4861
"44",-83.4599556,39.8744978,"Union township","state_pris",4856
"45",-122.5862388,37.9613104,"Ross Valley CCD","state_pris",4854
"46",-117.6484098,34.0388445,"Ontario CCD","state_pris",4829
"47",-94.1579492,29.928096,"LaBelle CCD","fed_pris",4772
"48",-76.671519,39.1738656,"District 1","state_pris",4716
"49",-117.1012203,32.8212225,"San Diego CCD","state_pris",4678
"50",-74.5716572,40.0155348,"New Hanover township","fed_pris",4665
"51",-78.7327118,36.1282165,"Dutchville township","fed_pris",4597
"52",-83.1305681,40.6022097,"Marion township","state_pris",4594
"53",-99.8613872,32.5915678,"Hawley-Noodle CCD","state_pris",4590
"54",-118.1775114,34.7263065,"North Antelope Valley CCD","state_pris",4562
"55",-115.8499737,33.0171389,"West Imperial CCD","state_pris",4504
"56",-117.2333829,34.5502881,"Victorville-Hesperia CCD","fed_pris",4463
"57",-112.0273165,33.5161731,"Phoenix CCD","state_pris",4414
"58",-110.7649031,32.151735,"Tucson CCD","state_pris",4409
"59",-74.928882,39.295626,"Maurice River township","state_pris",4405
"60",-74.2871145,44.7953953,"Malone town","state_pris",4359
"61",-121.7216797,37.6193177,"Livermore-Pleasanton CCD","local_jail",4324
"62",-117.5477036,33.9255061,"Norco CCD","state_pris",4316
"63",-82.0273927,29.3722641,"Fort McCoy-Anthony CCD","state_pris",4302
"64",-77.7485582,39.5337631,"District 12, Fairplay","state_pris",4255
"65",-84.2933913,39.4684551,"Turtlecreek township","state_pris",4212
"66",-115.5764186,33.1683043,"Calipatria-Westmorland CCD","state_pris",4164
"67",-98.511387,29.4149437,"San Antonio Central CCD","local_jail",4140
"68",-85.3875943,38.4239838,"La Grange CCD","state_pris",4084
"69",-84.6754676,46.3028886,"Kinross charter township","state_pris",4076
"70",-82.0320603,41.2810202,"Grafton village","state_pris",4045
"71",-121.9195088,37.321956,"San Jose CCD","local_jail",3979
"72",-94.7814649,30.0001881,"Liberty-Dayton CCD","state_pris",3951
"73",-121.4254872,38.5457216,"Sacramento CCD","local_jail",3879
"74",-76.9350968,41.1139477,"Gregg township","fed_pris",3864
"75",-90.7974433,35.0147169,"Madison township","fed_pris",3814
"76",-120.9412746,38.3474089,"Ione CCD","state_pris",3814
"77",-74.1725735,40.7242204,"Newark city","state_pris",3802
"78",-111.9229048,40.6608221,"Salt Lake City CCD","state_pris",3802
"79",-86.346627,32.6402294,"Deatsville CCD","state_pris",3775
"80",-121.4248557,37.6671789,"Tracy CCD","state_pris",3757
"81",-90.5636372,33.8550033,"District 5","state_pris",3756
"82",-78.2455709,42.82064,"Attica town","state_pris",3749
"83",-81.7737966,30.3172411,"Jacksonville West CCD","local_jail",3740
"84",-120.4653288,37.8906641,"Sonora CCD","state_pris",3707
"85",-84.6112302,43.4085283,"St. Louis city","state_pris",3683
"86",-86.2554146,43.2282176,"Muskegon city","state_pris",3631
"87",-98.5500206,33.9290734,"Wichita Falls CCD","state_pris",3627
"88",-83.0746015,39.7687801,"Scioto township","state_pris",3598
"89",-79.0603016,40.0211866,"Somerset township","state_pris",3590
"90",-89.8035432,37.9120861,"Chester precinct","state_pris",3571
"91",-122.9773935,44.9453795,"Salem CCD","state_pris",3569
"92",-90.2736812,32.9338949,"District 4","fed_pris",3548
"93",-91.1141124,30.218115,"District 4","state_pris",3533
"94",-81.3645187,28.5011624,"Orlando CCD","local_jail",3497
"95",-92.0748239,38.5190294,"Liberty township","state_pris",3488
"96",-89.1448101,35.3424454,"District 3","state_pris",3456
"97",-76.9268724,40.2088819,"Lower Allen township","state_pris",3441
"98",-71.4850489,41.7697341,"Cranston city","state_pris",3433
"99",-66.6695852,17.9913595,"Canas barrio","state_pris",3426
"100",-75.2279544,39.4275181,"Bridgeton city","state_pris",3397
"101",-75.4191299,40.2166573,"Skippack township","local_jail",3392
"102",-94.2690446,39.7957404,"Grand River township","state_pris",3386
"103",-72.5555531,41.983993,"Enfield town","state_pris",3374
"104",-124.2639255,41.7893736,"Crescent City CCD","state_pris",3367
"105",-120.4703931,34.6260558,"Lompoc CCD","fed_pris",3361
"106",-85.732243,39.9949902,"Fall Creek township","state_pris",3351
"107",-95.3887412,29.8014132,"Houston CCD","state_pris",3317
"108",-91.5206368,34.0535167,"Auburn township","state_pris",3288
"109",-84.2320232,30.1299507,"East Wakulla CCD","state_pris",3284
"110",-77.5615062,36.8115805,"District 4","state_pris",3276
"111",-87.4086021,39.3922323,"Honey Creek township","fed_pris",3260
"112",-90.0872728,32.288383,"District 5","state_pris",3256
"113",-97.3856388,32.7534125,"Fort Worth CCD","fed_pris",3247
"114",-75.7156304,38.121626,"District 13, Westover","state_pris",3240
"115",-89.9390074,30.0686361,"New Orleans city","local_jail",3238
"116",-93.9591808,29.9439502,"Port Arthur CCD","state_pris",3226
"117",-102.9030577,40.6184514,"Fleming CCD","state_pris",3224
"118",-84.2642049,33.7369391,"Atlanta-Decatur CCD","local_jail",3219
"119",-77.2801066,37.2621168,"Bland district","fed_pris",3207
"120",-86.872294,41.5592475,"New Durham township","state_pris",3178
"121",-78.0288184,40.4781423,"Smithfield township","state_pris",3169
"122",-88.0888078,41.5962634,"Lockport township","state_pris",3160
"123",-77.0170942,38.9041485,"Washington city","local_jail",3134
"124",-82.7900268,27.9691826,"Clearwater CCD","local_jail",3127
"125",-86.1190371,40.6051409,"Deer Creek township","state_pris",3120
"126",-114.9681904,35.916335,"Clark CCD","state_pris",3111
"127",-89.8524347,35.1470778,"District 1","local_jail",3098
"128",-105.1541312,38.3297437,"Florence CCD","fed_pris",3085
"129",-83.5432701,29.9060812,"Perry South CCD","state_pris",3055
"130",-88.7328554,43.6231505,"Waupun city","state_pris",3037
"131",-89.4332888,40.0884941,"Broadwell township","state_pris",3032
"132",-82.1126925,32.0428919,"Reidsville CCD","state_pris",3020
"133",-85.2465871,30.0606837,"Wewahitchka CCD","state_pris",3014
"134",-80.1039521,26.2394153,"Pompano Beach CCD","local_jail",2970
"135",-74.2926271,40.5607509,"Woodbridge township","state_pris",2957
"136",-88.5489426,31.1735663,"District 1","state_pris",2946
"137",-117.7445668,44.1440235,"Brogan CCD","state_pris",2927
"138",-73.8129713,44.7473788,"Dannemora town","state_pris",2924
"139",-84.1120905,40.7406793,"Lima city","state_pris",2886
"140",-97.2421648,35.1359606,"East Cleveland CCD","state_pris",2884
"141",-82.9056615,30.4972506,"Jasper CCD","state_pris",2877
"142",-97.8418468,28.7694048,"Kenedy CCD","state_pris",2846
"143",-94.8361971,30.7204527,"Livingston-Onalaska CCD","state_pris",2843
"144",-82.3806715,30.0561345,"Lake Butler CCD","state_pris",2836
"145",-94.1579492,29.928096,"LaBelle CCD","state_pris",2819
"146",-86.9250718,30.6234528,"East Milton CCD","state_pris",2795
"147",-73.8633045,42.3456803,"Coxsackie town","state_pris",2774
"148",-93.0536372,32.9411075,"District 2","state_pris",2767
"149",-94.4533716,33.4781144,"New Boston CCD","state_pris",2759
"150",-95.9658155,30.3482134,"Navasota CCD","state_pris",2736
"151",-80.4345966,25.7536469,"Kendale Lakes-Tamiami CCD","state_pris",2727
"152",-66.1369829,18.4021131,"Juan Sánchez barrio","state_pris",2701
"153",-80.9067229,40.057823,"Richland township","state_pris",2692
"154",-80.7426273,26.7602989,"Belle Glade-Pahokee CCD","state_pris",2673
"155",-92.4144502,31.4835211,"District 6","fed_pris",2647
"156",-103.8721267,38.3047959,"Ordway CCD","state_pris",2647
"157",-87.4694458,31.1860534,"McCullough-Huxford CCD","state_pris",2641
"158",-84.9674366,41.9634048,"Coldwater township","state_pris",2627
"159",-90.443333,37.7980646,"St. Francois township","state_pris",2623
"160",-86.8367567,39.5592433,"Warren township","state_pris",2621
"161",-117.9080045,35.2072518,"East Kern CCD","fed_pris",2614
"162",-75.2677377,43.1726122,"Marcy town","state_pris",2608
"163",-83.3805308,40.2484247,"Paris township","state_pris",2595
"164",-79.9765919,40.4397525,"Pittsburgh city","local_jail",2594
"165",-75.6506341,39.4279877,"Middletown-Odessa CCD","state_pris",2590
"166",-78.8685157,42.4918,"Collins town","state_pris",2589
"167",-84.0135996,33.9638378,"Lawrenceville CCD","local_jail",2578
"168",-90.5370125,37.907997,"Perry township","state_pris",2570
"169",-81.5190339,39.7041982,"Olive township","state_pris",2533
"170",-98.1378941,26.3460448,"Edinburg CCD","state_pris",2512
"171",-82.6432658,30.1744485,"Lake City CCD","state_pris",2511
"172",-76.6764229,39.98884,"Springettsbury township","local_jail",2508
"173",-84.8976881,43.1605534,"Bloomer township","state_pris",2492
"174",-98.2558945,34.5724193,"Southeast Comanche CCD","state_pris",2488
"175",-80.6829137,40.780192,"Elkrun township","fed_pris",2473
"176",-90.0023205,35.1971075,"District 2","local_jail",2466
"177",-121.9203647,47.8975036,"Monroe CCD","state_pris",2463
"178",-86.3831843,39.6758341,"Guilford township","state_pris",2444
"179",-81.7385703,27.1319187,"Arcadia East CCD","state_pris",2441
"180",-95.5193638,31.1033091,"Lovelady CCD","state_pris",2436
"181",-74.7640005,40.2237484,"Trenton city","state_pris",2435
"182",-73.5298593,43.4609287,"Fort Ann town","state_pris",2433
"183",-92.6201059,30.8601112,"District 3","fed_pris",2430
"184",-114.6814574,32.5349481,"Somerton CCD","state_pris",2404
"185",-84.472378,33.7619599,"Atlanta CCD","fed_pris",2389
"186",-81.2074878,28.5240403,"Union Park CCD","state_pris",2378
"187",-85.3566749,40.0113108,"Prairie township","state_pris",2372
"188",-84.472378,33.7619599,"Atlanta CCD","local_jail",2371
"189",-90.3728154,33.9731872,"District 5","state_pris",2360
"190",-87.8559321,38.6981672,"Christy township","state_pris",2358
"191",-85.6480873,30.5548844,"Vernon CCD","state_pris",2356
"192",-77.199731,36.9831026,"Newville district","state_pris",2356
"193",-95.744105,31.0188802,"Midway CCD","state_pris",2355
"194",-119.3685308,35.1245784,"West Kern CCD","fed_pris",2351
"195",-89.8061286,35.7276458,"District 5","state_pris",2347
"196",-84.5378514,36.1201157,"District 3","state_pris",2345
"197",-119.7622741,36.780489,"Fresno CCD","local_jail",2344
"198",-86.9747527,34.8213418,"Athens CCD","state_pris",2342
"199",-94.897884,39.242934,"Lansing city","state_pris",2342
"200",-82.2714921,27.943237,"Brandon CCD","local_jail",2340
"201",-72.4536297,41.9927806,"Somers town","state_pris",2339
"202",-84.0730603,41.8527313,"Madison charter township","state_pris",2335
"203",-122.3241704,47.5586676,"Seattle CCD","local_jail",2320
"204",-89.4696546,36.4499197,"District 1","state_pris",2312
"205",-74.1725735,40.7242204,"Newark city","local_jail",2305
"206",-118.3258344,46.0548487,"Walla Walla-College Place CCD","state_pris",2300
"207",-109.4347432,31.693002,"Elfrida CCD","state_pris",2294
"208",-101.4544945,32.1734119,"Big Spring CCD","fed_pris",2288
"209",-88.562352,44.0226282,"Oshkosh city","state_pris",2284
"210",-89.3316925,38.0902632,"Pinckneyville No. 7 precinct","state_pris",2280
"211",-100.851471,32.4152718,"Colorado City CCD","state_pris",2275
"212",-86.1394918,39.7748527,"Center township","local_jail",2254
"213",-89.4594156,41.8677148,"Dixon township","state_pris",2249
"214",-111.9229048,40.6608221,"Salt Lake City CCD","local_jail",2249
"215",-71.0201725,42.33196,"Boston city","local_jail",2239
"216",-78.3809804,40.8512885,"Woodward township","state_pris",2237
"217",-78.6497093,35.7923634,"Raleigh township","state_pris",2228
"218",-81.062588,37.750996,"District 3","fed_pris",2224
"219",-86.8666697,41.7329494,"Michigan township","state_pris",2221
"220",-76.1440637,40.820356,"Mahanoy township","state_pris",2218
"221",-96.6883192,32.8294489,"Northeast Dallas CCD","state_pris",2214
"222",-80.4381714,41.8825526,"Conneaut township","state_pris",2197
"223",-80.2406081,34.9910266,"Lanesboro township","state_pris",2190
"224",-117.6964125,47.720717,"Airway Heights CCD","state_pris",2184
"225",-79.0974401,41.475669,"Jenks township","state_pris",2179
"226",-82.1044475,30.0678793,"Lawtey CCD","state_pris",2170
"227",-87.4007475,38.9621112,"Haddon township","state_pris",2156
"228",-91.169961,30.5570909,"District 2","state_pris",2156
"229",-72.6787509,41.9999149,"Suffield town","state_pris",2137
"230",-83.1022365,42.3830375,"Detroit city","state_pris",2130
"231",-77.6161729,35.5071999,"Olds township","state_pris",2128
"232",-98.7403555,29.3920668,"San Antonio West CCD","state_pris",2109
"233",-82.0123471,33.773302,"Edgefield CCD","fed_pris",2092
"234",-97.5634499,35.4945311,"Oklahoma City Southwest CCD","local_jail",2088
"235",-79.5761752,39.6099265,"Second district","fed_pris",2086
"236",-75.9811815,41.2796931,"Jackson township","state_pris",2086
"237",-84.535337,33.9614853,"Marietta CCD","local_jail",2085
"238",-75.4917117,43.2272326,"Rome city","state_pris",2083
"239",-80.6459017,41.099095,"Youngstown city","fed_pris",2071
"240",-90.046953,40.5810509,"Canton township","state_pris",2069
"241",-103.2776282,38.1489134,"Las Animas CCD","state_pris",2067
"242",-77.8152845,40.869816,"Benner township","state_pris",2064
"243",-73.69837,41.6028691,"Beekman town","state_pris",2062
"244",-101.9596293,32.7394955,"Lamesa CCD","state_pris",2060
"245",-90.7370862,39.975797,"Mount Sterling township","state_pris",2059
"246",-93.278938,44.298583,"Faribault city","state_pris",2058
"247",-71.3293599,42.1162455,"Norfolk town","state_pris",2055
"248",-70.9787781,41.9723874,"Bridgewater town","state_pris",2054
"249",-94.8165105,39.7583053,"Washington township","state_pris",2049
"250",-84.9474444,30.6986046,"Sneads CCD","state_pris",2048
"251",-66.180776,17.9523818,"Jobos barrio","state_pris",2045
"252",-94.9250132,39.3227166,"Leavenworth city","fed_pris",2039
"253",-96.6803544,40.8089574,"Lincoln city","state_pris",2036
"254",-96.1967636,33.5543462,"Bonham CCD","state_pris",2030
"255",-117.6484098,34.0388445,"Ontario CCD","fed_pris",2028
"256",-96.876343,32.6984258,"Southwest Dallas CCD","state_pris",2024
"257",-81.6794861,41.4781381,"Cleveland city","local_jail",2024
"258",-83.2955472,30.1801547,"Day CCD","state_pris",2018
"259",-72.230131,41.3567172,"East Lyme town","state_pris",2014
"260",-85.7512252,38.2425111,"Louisville Central CCD","local_jail",2011
"261",-84.048156,33.2371733,"Southwest Butts CCD","state_pris",2007
"262",-76.8301748,42.7134963,"Romulus town","state_pris",1996
"263",-84.3408214,33.4776575,"Jonesboro CCD","local_jail",1991
"264",-91.2627618,31.6080976,"District 5","fed_pris",1976
"265",-94.798858,32.1723323,"Henderson CCD","state_pris",1969
"266",-97.6912697,30.2395128,"Austin CCD","local_jail",1965
"267",-80.3445001,25.8193653,"North Westside CCD","local_jail",1958
"268",-82.0774618,28.6008637,"Bushnell-Center Hill CCD","state_pris",1956
"269",-102.7986785,30.6781932,"Fort Stockton CCD","state_pris",1956
"270",-80.0972891,26.6268929,"Lake Worth CCD","local_jail",1956
"271",-80.8307389,35.2087069,"Township 1, Charlotte","local_jail",1956
"272",-76.5185253,40.7765942,"Coal township","state_pris",1954
"273",-82.1516996,29.9638343,"Starke CCD","state_pris",1952
"274",-81.8108637,31.4940495,"Jesup CCD","fed_pris",1943
"275",-101.7856441,34.1955342,"Plainview CCD","state_pris",1937
"276",-79.9326028,39.9737816,"Luzerne township","state_pris",1930
"277",-86.8834651,36.1790483,"District 20","state_pris",1930
"278",-106.528069,31.948886,"El Paso Northwest CCD","fed_pris",1928
"279",-87.1427868,32.9322265,"Centreville-Brent CCD","state_pris",1924
"280",-91.1893826,39.3380396,"Cuivre township","state_pris",1924
"281",-101.1985034,33.1514982,"Post East CCD","fed_pris",1920
"282",-106.115001,31.6740541,"El Paso East CCD","local_jail",1915
"283",-82.8034103,32.113498,"Alamo CCD","state_pris",1911
"284",-73.9647353,41.5032396,"Beacon city","state_pris",1908
"285",-78.2093867,43.2263431,"Albion town","state_pris",1901
"286",-82.2328293,30.1146512,"Raiford CCD","state_pris",1899
"287",-87.9911725,35.377286,"District 2","state_pris",1899
"288",-89.418694,39.0995576,"East Fork township","state_pris",1894
"289",-82.6792326,31.4748933,"Nicholls CCD","state_pris",1893
"290",-77.7152503,39.5927684,"District 10, Funkstown","state_pris",1883
"291",-116.815378,32.6787552,"Jamul CCD","local_jail",1883
"292",-83.2233795,37.8933925,"West Liberty CCD","state_pris",1880
"293",-85.5001281,30.9096342,"Graceville CCD","state_pris",1874
"294",-117.1012203,32.8212225,"San Diego CCD","local_jail",1852
"295",-81.6326392,28.1519409,"Haines City CCD","state_pris",1847
"296",-92.015278,32.4676052,"District D","local_jail",1845
"297",-88.8730932,38.162472,"Spring Garden township","state_pris",1844
"298",-90.3765641,40.950217,"Galesburg City township","state_pris",1844
"299",-74.1208748,40.7537199,"Kearny town","local_jail",1843
"300",-87.6109484,40.1041251,"Danville township","state_pris",1839
"301",-118.2451847,33.8696415,"Compton CCD","local_jail",1833
"302",-83.3164718,31.9531356,"Abbeville CCD","state_pris",1829
"303",-104.8806251,39.7618487,"Denver CCD","local_jail",1822
"304",-80.1862001,39.8738626,"Franklin township","state_pris",1819
"305",-99.0910375,29.3857818,"Hondo CCD","state_pris",1818
"306",-75.4213848,40.1510275,"Lower Providence township","local_jail",1816
"307",-87.90155,42.7002502,"Sturtevant village","state_pris",1811
"308",-80.2817064,34.2227527,"Bishopville CCD","state_pris",1802
"309",-88.0115479,42.883879,"Franklin city","local_jail",1800
"310",-84.2235476,31.2542997,"Camilla CCD","state_pris",1787
"311",-76.8096099,42.0933876,"Elmira city","state_pris",1787
"312",-95.3075356,35.7037575,"Muskogee CCD","state_pris",1786
"313",-96.6883192,32.8294489,"Northeast Dallas CCD","fed_pris",1781
"314",-91.178097,35.6378955,"Village township","state_pris",1777
"315",-97.9119445,38.0681225,"Hutchinson city","state_pris",1775
"316",-76.9201828,40.9987107,"Kelly township","fed_pris",1774
"317",-80.8021096,38.9075542,"City district","fed_pris",1773
"318",-92.0081836,34.2243578,"Vaugine township","state_pris",1767
"319",-71.5612523,43.2324926,"Concord city","state_pris",1766
"320",-83.7348936,32.2290836,"Unadilla CCD","state_pris",1764
"321",-77.7687275,42.7096418,"Groveland town","state_pris",1756
"322",-95.7998884,34.900302,"McAlester CCD","state_pris",1755
"323",-82.8801875,32.0224196,"McRae-Helena CCD","fed_pris",1744
"324",-84.1292753,32.2614584,"Oglethorpe CCD","state_pris",1743
"325",-119.2591869,45.8259152,"Hermiston-Umatilla CCD","state_pris",1743
"326",-84.4603001,38.1407842,"Lexington-Fayette Northwest CCD","fed_pris",1742
"327",-82.0019767,35.9604952,"Ingalls township","state_pris",1742
"328",-81.8922499,26.5521343,"Fort Myers CCD","local_jail",1742
"329",-75.1066438,39.9367868,"Camden city","local_jail",1742
"330",-76.3562686,36.8594298,"Portsmouth city","local_jail",1739
"331",-94.4375853,30.7627788,"Woodville CCD","state_pris",1737
"332",-76.5673419,42.9337096,"Auburn city","state_pris",1733
"333",-74.4195901,41.746881,"Wawarsing town","state_pris",1723
"334",-73.8554968,41.157624,"Ossining town","state_pris",1717
"335",-92.4021508,39.3220507,"Prairie township","state_pris",1713
"336",-79.9765919,40.4397525,"Pittsburgh city","state_pris",1704
"337",-80.9172319,27.4651319,"North Okeechobee CCD","state_pris",1703
"338",-84.9882212,30.2896579,"West Liberty CCD","state_pris",1702
"339",-98.3335062,35.3918073,"Binger-Hinton CCD","state_pris",1685
"340",-86.0547833,32.3615027,"Mount Meigs CCD","state_pris",1680
"341",-90.5598586,34.7904213,"St. Francis township","state_pris",1679
"342",-82.0927807,29.178716,"Ocala CCD","local_jail",1674
"343",-123.0832137,47.2049778,"Shelton CCD","state_pris",1673
"344",-94.1229613,33.4715695,"Texarkana CCD","fed_pris",1671
"345",-88.6448629,40.8916749,"Pontiac township","state_pris",1669
"346",-85.3606609,34.4840937,"Summerville CCD","state_pris",1664
"347",-84.4121079,36.6489348,"Pine Knot CCD","fed_pris",1659
"348",-95.6543612,29.6188483,"Sugar Land CCD","state_pris",1659
"349",-78.8014605,39.6326966,"District 6, Cumberland","state_pris",1655
"350",-118.6410499,40.1887466,"Lovelock CCD","state_pris",1654
"351",-89.6631812,40.5178819,"Cincinnati township","fed_pris",1652
"352",-73.6091,40.6339587,"Hempstead town","local_jail",1651
"353",-82.176774,30.9267248,"Folkston CCD","state_pris",1646
"354",-87.357607,30.882707,"Century CCD","state_pris",1636
"355",-81.1186895,31.9165315,"Savannah CCD","local_jail",1632
"356",-85.4498309,31.9222753,"Clayton CCD","state_pris",1626
"357",-85.0982814,30.371792,"Blountstown CCD","state_pris",1626
"358",-84.6262895,31.521279,"Morgan CCD","state_pris",1625
"359",-81.1979435,32.1720657,"Port Wentworth CCD","state_pris",1621
"360",-83.7349328,37.144486,"Manchester CCD","fed_pris",1619
"361",-81.9395938,27.4728652,"Wauchula CCD","state_pris",1616
"362",-80.0437922,32.9133631,"North Charleston CCD","local_jail",1610
"363",-89.3205941,36.9359731,"Tywappity township","state_pris",1607
"364",-118.9589319,45.7190279,"Pendleton CCD","state_pris",1605
"365",-80.7906355,28.3507041,"Cocoa-Rockledge CCD","local_jail",1605
"366",-81.9759818,31.9520013,"Glennville CCD","state_pris",1604
"367",-110.7649031,32.151735,"Tucson CCD","fed_pris",1601
"368",-91.8384567,37.5198214,"Sherrill township","state_pris",1599
"369",-110.7649031,32.151735,"Tucson CCD","local_jail",1595
"370",-95.9526327,36.1287253,"Tulsa CCD","local_jail",1595
"371",-75.5087107,39.8730636,"Concord township","local_jail",1589
"372",-92.7834559,45.0168524,"Bayport city","state_pris",1587
"373",-79.737077,34.6278103,"Bennettsville CCD","state_pris",1583
"374",-82.5599134,37.7980012,"Inez CCD","fed_pris",1579
"375",-81.1008172,28.9981478,"Central Volusia CCD","state_pris",1570
"376",-75.394939,41.5670911,"Canaan township","state_pris",1569
"377",-123.5070664,45.1602463,"Sheridan CCD","fed_pris",1564
"378",-91.8411245,31.0577203,"District 7","state_pris",1563
"379",-82.6661083,32.7363789,"Wrightsville CCD","state_pris",1562
"380",-91.2132031,30.8283087,"District 4A","state_pris",1562
"381",-82.6162414,32.9445758,"Davisboro CCD","state_pris",1555
"382",-82.7321131,38.4182131,"Ashland South CCD","fed_pris",1551
"383",-122.8650128,45.4451446,"Beaverton-Hillsboro CCD","state_pris",1548
"384",-80.5637018,34.5878085,"Kershaw CCD","state_pris",1548
"385",-81.9037899,36.4513665,"District 5","state_pris",1548
"386",-89.2217163,38.5317347,"Brookside township","state_pris",1547
"387",-83.5424308,34.5249681,"Cornelia CCD","state_pris",1545
"388",-82.65293,39.6838745,"Hocking township","state_pris",1540
"389",-80.1741855,41.2040174,"Findley township","state_pris",1540
"390",-89.4317816,38.8699359,"Central township","fed_pris",1536
"391",-81.6881323,35.7072522,"Morganton township","state_pris",1535
"392",-87.1459195,33.5798179,"West Jefferson CCD","state_pris",1534
"393",-175.8600409,27.7845986,"Honolulu CCD","state_pris",1533
"394",-82.5120719,31.2500064,"Waresboro CCD","state_pris",1529
"395",-76.3292566,40.7657863,"Butler township","fed_pris",1526
"396",-93.7672254,32.5315458,"District 3","local_jail",1524
"397",-75.5292892,39.7352263,"Wilmington CCD","state_pris",1523
"398",-80.5020888,27.0671262,"Indiantown CCD","state_pris",1521
"399",-86.2477912,30.6460967,"De Funiak Springs CCD","state_pris",1521
"400",-78.6920261,39.6055947,"District 16, North Branch","fed_pris",1514
"401",-76.3017884,36.6793761,"Chesapeake city","state_pris",1514
"402",-119.2647247,35.4949197,"Shafter CCD","local_jail",1513
"403",-111.8534084,39.2282925,"Gunnison CCD","state_pris",1512
"404",-107.97143,34.9812298,"Grants CCD","fed_pris",1509
"405",-88.7675733,37.3941545,"Grantsburg No. 1 precinct","state_pris",1503
"406",-75.394939,41.5670911,"Canaan township","fed_pris",1500
"407",-80.5683821,41.9272986,"Conneaut city","state_pris",1500
"408",-90.9494389,44.9595064,"Stanley city","state_pris",1500
"409",-80.3351633,27.4450356,"Fort Pierce CCD","local_jail",1499
"410",-97.3856388,32.7534125,"Fort Worth CCD","local_jail",1498
"411",-78.3063883,40.8830836,"Decatur township","fed_pris",1495
"412",-85.701528,32.1567,"Union Springs CCD","state_pris",1495
"413",-72.1555701,41.4638999,"Montville town","state_pris",1495
"414",-97.2201437,30.1756504,"Bastrop CCD","fed_pris",1492
"415",-72.9036174,41.5118273,"Cheshire town","state_pris",1492
"416",-83.0422745,36.7227674,"District 3","fed_pris",1486
"417",-89.1037609,39.0511178,"Sharon township","state_pris",1485
"418",-96.7290519,43.5479691,"Sioux Falls city","state_pris",1482
"419",-114.3187755,34.9786043,"Bullhead City CCD","state_pris",1481
"420",-85.0866421,30.8679138,"Greenwood CCD","fed_pris",1477
"421",-77.4760085,37.531399,"Richmond city","local_jail",1476
"422",-84.0986122,43.5200017,"Tittabawassee township","state_pris",1470
"423",-78.5878117,40.4479926,"Cresson township","state_pris",1469
"424",-78.8108968,34.1409327,"South Williams township","state_pris",1468
"425",-83.2873632,42.6492283,"Pontiac city","local_jail",1467
"426",-92.7953712,30.4989907,"District 6","local_jail",1466
"427",-97.9354649,35.5608555,"El Reno CCD","fed_pris",1465
"428",-79.737077,34.6278103,"Bennettsville CCD","fed_pris",1464
"429",-83.3688342,30.9563673,"Hahira CCD","state_pris",1461
"430",-76.8969409,41.203315,"Clinton township","state_pris",1456
"431",-71.6409862,42.5736544,"Shirley town","state_pris",1454
"432",-92.7976301,31.8721283,"District 3","state_pris",1452
"433",-83.3669423,30.4415741,"Madison CCD","state_pris",1447
"434",-112.7725009,46.3664828,"Deer Lodge CCD","state_pris",1445
"435",-119.0316968,46.6393457,"Connell CCD","state_pris",1445
"436",-78.6841864,41.8104141,"Lafayette township","fed_pris",1441
"437",-85.1538321,30.960762,"Malone CCD","state_pris",1440
"438",-84.5064465,39.1399019,"Cincinnati city","local_jail",1436
"439",-95.1931185,31.7970129,"Rusk CCD","state_pris",1433
"440",-122.7405823,47.2547261,"Key Peninsula-Anderson Island CCD","state_pris",1427
"441",-78.8504689,39.5856532,"District 7, Cresaptown/Bel Air","state_pris",1426
"442",-91.513956,39.2373127,"Cuivre township","state_pris",1426
"443",-91.888269,34.4406397,"Dudley Lake township","state_pris",1425
"444",-86.4387687,33.7458104,"Springville CCD","state_pris",1423
"445",-84.5462794,29.9043699,"Carrabelle CCD","state_pris",1420
"446",-87.9666952,43.0633484,"Milwaukee city","state_pris",1419
"447",-110.3241699,34.9152153,"Winslow-Holbrook CCD","state_pris",1413
"448",-95.6543612,29.6188483,"Sugar Land CCD","fed_pris",1412
"449",-119.3076926,34.318544,"Ventura CCD","local_jail",1412
"450",-82.9922585,38.8989633,"Valley township","state_pris",1411
"451",-74.964965,40.6322148,"Union township","state_pris",1402
"452",-71.3644962,42.4629107,"Concord town","state_pris",1394
"453",-80.0401952,33.7982242,"Sardinia CCD","state_pris",1390
"454",-80.3435637,33.0306383,"Ridgeville CCD","state_pris",1385
"455",-85.7313748,30.8421185,"Bonifay CCD","state_pris",1381
"456",-82.3259076,30.3642181,"Sanderson CCD","state_pris",1376
"457",-87.2664896,30.3482283,"Pensacola CCD","local_jail",1373
"458",-104.8806251,39.7618487,"Denver CCD","state_pris",1369
"459",-81.3932444,27.7103775,"Frostproof CCD","state_pris",1361
"460",-76.0240202,36.7793219,"Virginia Beach city","local_jail",1358
"461",-81.3932444,27.7103775,"Frostproof CCD","local_jail",1356
"462",-88.9390643,43.588156,"Fox Lake town","state_pris",1353
"463",-76.2446413,36.9230149,"Norfolk city","local_jail",1353
"464",-80.8167246,41.2382556,"Warren city","state_pris",1351
"465",-121.7216797,37.6193177,"Livermore-Pleasanton CCD","fed_pris",1345
"466",-81.1008172,28.9981478,"Central Volusia CCD","local_jail",1341
"467",-81.2079273,32.7854376,"Estill CCD","fed_pris",1340
"468",-88.6490452,41.4997658,"Mission township","state_pris",1340
"469",-73.4722848,41.4018389,"Danbury town","fed_pris",1339
"470",-73.8223284,41.0982116,"Mount Pleasant town","local_jail",1336
"471",-102.7082657,35.8696213,"Dalhart CCD","state_pris",1333
"472",-97.1911697,29.0933065,"Cuero CCD","state_pris",1330
"473",-82.9982471,33.3073803,"Sparta CCD","state_pris",1329
"474",-85.3946968,44.555172,"Fife Lake township","state_pris",1329
"475",-88.101318,30.7896521,"Mobile CCD","local_jail",1328
"476",-96.2466015,31.5977027,"Teague CCD","state_pris",1327
"477",-100.2044841,34.4360735,"Childress CCD","state_pris",1326
"478",-96.8740385,31.3409711,"Marlin CCD","state_pris",1324
"479",-86.5683088,38.1913855,"Oil township","state_pris",1322
"480",-76.5874585,39.4017373,"District 9","local_jail",1322
"481",-119.3467968,36.3583459,"Visalia CCD","local_jail",1321
"482",-91.9240894,38.8359656,"East Fulton township","state_pris",1320
"483",-96.2971288,35.0777428,"Holdenville CCD","state_pris",1320
"484",-70.6185512,41.8942372,"Plymouth town","local_jail",1319
"485",-80.4345966,25.7536469,"Kendale Lakes-Tamiami CCD","fed_pris",1317
"486",-85.5577196,31.6794432,"Clio CCD","state_pris",1316
"487",-96.0419269,41.2646751,"Omaha city","local_jail",1316
"488",-92.864553,46.1290363,"Sandstone city","fed_pris",1315
"489",-77.3756276,38.3929811,"Aquia district","local_jail",1315
"490",-83.7225501,42.1271103,"York charter township","fed_pris",1311
"491",-91.573392,31.5649183,"District 4","local_jail",1311
"492",-93.0849556,45.1678746,"Lino Lakes city","state_pris",1305
"493",-74.2990509,40.2243816,"Freehold township","local_jail",1305
"494",-87.2087917,39.7402066,"Adams township","state_pris",1299
"495",-100.8530504,32.8059799,"Snyder CCD","state_pris",1296
"496",-66.113591,18.4136878,"Pueblo Viejo barrio","fed_pris",1294
"497",-80.9258838,32.4799246,"Ridgeland CCD","state_pris",1294
"498",-81.8846571,34.8031808,"Pauline CCD","state_pris",1294
"499",-104.7889456,39.9417271,"Brighton CCD","local_jail",1294
"500",-119.743442,39.1534468,"Carson City CCD","state_pris",1293
"501",-87.3066298,41.4790633,"Ross township","local_jail",1292
"502",-104.785818,38.8646093,"Colorado Springs CCD","local_jail",1291
"503",-80.1222566,26.1519495,"Fort Lauderdale CCD","local_jail",1291
"504",-89.8524347,35.1470778,"District 1","fed_pris",1287
"505",-110.1106449,32.658135,"Bonita-Klondyke CCD","fed_pris",1286
"506",-120.5678527,37.3798852,"Atwater CCD","fed_pris",1286
"507",-83.1033099,29.7184581,"Cross City North CCD","state_pris",1283
"508",-77.3119677,36.737068,"Drewryville district","state_pris",1283
"509",-92.7547608,38.9438531,"Boonville township","state_pris",1282
"510",-97.4381222,27.7017677,"Corpus Christi CCD","local_jail",1280
"511",-74.6037561,41.7369922,"Fallsburg town","state_pris",1276
"512",-77.8568214,37.6902444,"District 3","state_pris",1276
"513",-77.8737672,37.586097,"District 3","state_pris",1273
"514",-79.8651235,39.6519984,"Eastern district","fed_pris",1271
"515",-76.6940538,37.9736864,"District 2","state_pris",1268
"516",-78.0997907,37.211825,"District 3","state_pris",1267
"517",-96.7589255,37.832533,"Prospect township","local_jail",1267
"518",-89.650597,43.8553157,"New Chester town","fed_pris",1266
"519",-82.7984359,42.7605831,"Lenox township","state_pris",1265
"520",-71.675513,42.4828194,"Lancaster town","state_pris",1259
"521",-88.6631311,32.3109427,"District 5","state_pris",1257
"522",-77.2801066,37.2621168,"Bland district","local_jail",1255
"523",-86.5111283,30.7863146,"Crestview CCD","state_pris",1253
"524",-99.2685984,28.7244583,"Dilley CCD","state_pris",1253
"525",-121.3859097,37.941158,"Stockton CCD","local_jail",1253
"526",-75.2387206,39.3723162,"Fairfield township","fed_pris",1251
"527",-82.3544712,28.3111527,"Central Pasco CCD","local_jail",1248
"528",-74.5267609,41.4572555,"Mount Hope town","fed_pris",1247
"529",-82.246899,33.9241261,"McCormick CCD","state_pris",1244
"530",-97.8964981,42.8624815,"Springfield city","state_pris",1243
"531",-81.3241455,32.874569,"Fairfax CCD","state_pris",1236
"532",-106.3817367,38.9734146,"Buena Vista CCD","state_pris",1235
"533",-83.2045413,32.3645426,"Chester CCD","state_pris",1232
"534",-87.3958333,46.5506978,"Marquette city","state_pris",1232
"535",-122.4558891,47.203152,"Tacoma CCD","local_jail",1232
"536",-87.5436684,35.877922,"District 1","state_pris",1229
"537",-75.4632712,44.7091795,"Ogdensburg city","state_pris",1226
"538",-74.0462805,44.2061128,"North Elba town","fed_pris",1222
"539",-78.286689,37.9397405,"Palmyra district","state_pris",1218
"540",-90.3717498,38.6315053,"Clayton township","local_jail",1218
"541",-86.0867932,33.4434418,"Talladega CCD","fed_pris",1214
"542",-123.0322294,37.7272391,"San Francisco CCD","local_jail",1210
"543",-80.2249558,25.8285311,"Miami CCD","local_jail",1208
"544",-87.751262,39.0148006,"Robinson township","state_pris",1207
"545",-77.2658679,38.8156417,"Braddock district","local_jail",1207
"546",-106.6782221,34.8008926,"Los Lunas CCD","state_pris",1206
"547",-89.1915011,39.4782409,"Locust township","state_pris",1204
"548",-158.020929,21.3689599,"Ewa CCD","state_pris",1203
"549",-73.923762,41.515512,"Fishkill town","state_pris",1198
"550",-78.0395039,38.3818514,"Cedar Mountain district","state_pris",1196
"551",-71.0071181,42.6105133,"Middleton town","local_jail",1196
"552",-71.5888888,42.5048231,"Harvard town","fed_pris",1194
"553",-111.2133547,32.7917151,"Florence CCD","local_jail",1188
"554",-75.3718821,39.8455581,"Chester city","state_pris",1185
"555",-96.396013,36.4200751,"Hominy CCD","state_pris",1182
"556",-78.2570058,36.6896648,"District 6","state_pris",1181
"557",-84.9064718,32.4826158,"Columbus East CCD","state_pris",1176
"558",-82.3649087,34.8455375,"Greenville CCD","local_jail",1176
"559",-78.2902232,37.0621259,"Meherrin River district","state_pris",1173
"560",-83.5818608,41.664071,"Toledo city","state_pris",1172
"561",-122.24413,47.9375318,"Everett CCD","local_jail",1170
"562",-88.104999,43.6704145,"Mitchell town","state_pris",1167
"563",-79.8244808,33.5023185,"Lane CCD","fed_pris",1162
"564",-86.826018,33.5144043,"Birmingham CCD","local_jail",1161
"565",-89.5821411,46.38478,"Marenisco township","state_pris",1159
"566",-94.1756674,42.5096069,"Fort Dodge city","state_pris",1158
"567",-83.8308576,30.5715254,"Monticello CCD","state_pris",1157
"568",-93.0494769,41.6377069,"Palo Alto township","state_pris",1155
"569",-92.7783375,38.617382,"Willow Fork township","state_pris",1153
"570",-79.3321438,38.1777009,"Pastures district","state_pris",1153
"571",-93.2913048,37.194152,"Springfield township","fed_pris",1151
"572",-83.3941256,32.2449785,"Hartford CCD","state_pris",1149
"573",-86.675474,36.0803678,"District 28","state_pris",1147
"574",-81.2911071,28.2335204,"St. Cloud CCD","local_jail",1147
"575",-97.1514383,33.2436015,"Denton CCD","local_jail",1147
"576",-82.8801875,32.0224196,"McRae-Helena CCD","state_pris",1146
"577",-76.7912595,38.805245,"District 15, Mellwood","local_jail",1141
"578",-82.8815059,42.5980555,"Mount Clemens city","local_jail",1140
"579",-81.8938743,28.5070244,"Groveland-Mascotte CCD","state_pris",1138
"580",-82.7265013,36.8626084,"District 3","state_pris",1138
"581",-71.7850362,42.3694173,"West Boylston town","local_jail",1138
"582",-97.1563815,31.5247791,"Waco CCD","local_jail",1138
"583",-79.967506,38.6249552,"Huttonsville district","state_pris",1135
"584",-103.3064045,32.6585159,"Hobbs CCD","state_pris",1134
"585",-95.6074474,31.7623956,"Palestine CCD","state_pris",1133
"586",-104.9396585,39.6082728,"Southwest Arapahoe CCD","local_jail",1133
"587",-70.9584865,41.5665098,"Dartmouth town","local_jail",1133
"588",-115.0761397,39.3757085,"Ruth CCD","state_pris",1129
"589",-112.1142667,33.8190679,"Deer Valley CCD","fed_pris",1126
"590",-89.8298457,30.9090175,"District 4","state_pris",1125
"591",-80.8149516,37.5981347,"Greenbrier River district","fed_pris",1124
"592",-78.0929567,35.4040577,"Fork township","state_pris",1123
"593",-95.6434597,29.0755364,"Brazoria-West Columbia CCD","state_pris",1122
"594",-90.3796625,41.5296167,"Hampton township","state_pris",1121
"595",-76.0507473,41.1782512,"Newport township","state_pris",1120
"596",-120.152514,40.1324038,"Honey Lake CCD","fed_pris",1113
"597",-76.1126271,40.789215,"Ryan township","state_pris",1113
"598",-74.2658523,41.6322068,"Shawangunk town","state_pris",1110
"599",-88.5279697,41.0642467,"Nevada township","state_pris",1106
"600",-79.3168676,36.3971024,"Yanceyville township","state_pris",1105
"601",-97.6912697,30.2395128,"Austin CCD","state_pris",1105
"602",-85.4240416,46.2930353,"Pentland township","state_pris",1102
"603",-94.7388522,31.1748608,"Diboll CCD","state_pris",1101
"604",-82.021331,33.4446911,"Augusta CCD","state_pris",1099
"605",-78.3773164,37.5791716,"District 7","state_pris",1098
"606",-73.6649435,41.2257043,"Bedford town","state_pris",1096
"607",-72.6833394,41.7660453,"Hartford town","local_jail",1095
"608",-92.8448201,34.3809116,"Fenter township","state_pris",1092
"609",-88.0262368,44.472257,"Allouez village","state_pris",1092
"610",-119.8979027,39.7414289,"North Valleys CCD","local_jail",1090
"611",-106.115001,31.6740541,"El Paso East CCD","state_pris",1087
"612",-77.6168907,43.1699272,"Rochester city","local_jail",1086
"613",-75.4781595,40.5939656,"Allentown city","local_jail",1083
"614",-90.6131443,38.519801,"Meramec township","state_pris",1082
"615",-92.0123777,30.2151589,"District D","local_jail",1082
"616",-86.675474,36.0803678,"District 28","local_jail",1081
"617",-75.9966479,40.3973828,"Bern township","local_jail",1078
"618",-105.5987682,32.3845551,"Southeast Otero CCD","local_jail",1077
"619",-78.4081037,37.5366801,"District 2","state_pris",1075
"620",-122.2399187,37.493939,"San Mateo CCD","local_jail",1074
"621",-97.3426776,37.6906938,"Wichita city","local_jail",1071
"622",-72.4590785,42.1888646,"Ludlow town","local_jail",1069
"623",-96.4743401,30.6579993,"West Brazos CCD","state_pris",1068
"624",-93.4998284,44.0822636,"Waseca city","fed_pris",1067
"625",-81.8366872,26.8761018,"Punta Gorda CCD","state_pris",1067
"626",-97.7669337,26.4853404,"Raymondville CCD","state_pris",1067
"627",-117.3249567,33.9371171,"Riverside CCD","local_jail",1065
"628",-97.4310089,30.7286868,"Granger CCD","state_pris",1061
"629",-118.3598178,33.9958488,"Los Angeles CCD","fed_pris",1055
"630",-105.2885,39.7887818,"Golden CCD","local_jail",1053
"631",-119.916239,34.0776701,"Santa Barbara CCD","local_jail",1052
"632",-82.6026768,27.569022,"Palmetto CCD","local_jail",1052
"633",-117.1093924,33.5357227,"Murrieta CCD","local_jail",1048
"634",-97.7185635,30.5932293,"Round Rock-Georgetown CCD","local_jail",1047
"635",-86.2487399,44.2862765,"Manistee township","state_pris",1045
"636",-91.3164168,42.0763007,"Fairview township","state_pris",1043
"637",-97.1809192,32.448375,"Alvarado CCD","state_pris",1042
"638",-81.245137,38.0808698,"Valley district","state_pris",1042
"639",-78.5206134,42.9072561,"Alden town","state_pris",1041
"640",-96.9452376,35.307683,"Shawnee CCD","state_pris",1039
"641",-99.3810913,36.3497297,"Woodward CCD","state_pris",1037
"642",-76.3017884,36.6793761,"Chesapeake city","local_jail",1035
"643",-98.1569667,33.2988863,"Jacksboro CCD","state_pris",1033
"644",-83.8032433,34.2690469,"Gainesville CCD","state_pris",1032
"645",-76.4122157,42.7342426,"Moravia town","state_pris",1031
"646",-72.4590563,40.8804631,"Southampton town","local_jail",1030
"647",-95.0711777,40.7650416,"Nodaway township","state_pris",1028
"648",-89.1143563,44.0533418,"Redgranite village","state_pris",1026
"649",-92.4120713,34.7417737,"Big Rock township","local_jail",1026
"650",-90.1623788,43.875292,"New Lisbon city","state_pris",1025
"651",-81.538085,37.211983,"Northern district","state_pris",1023
"652",-71.9880619,42.5865157,"Gardner city","state_pris",1021
"653",-82.3363183,34.5905633,"Woodville CCD","state_pris",1021
"654",-80.7906355,28.3507041,"Cocoa-Rockledge CCD","state_pris",1020
"655",-92.7596084,46.4507181,"Moose Lake city","state_pris",1020
"656",-74.1628255,40.9147462,"Paterson city","local_jail",1019
"657",-72.2284642,41.7892725,"Mansfield town","state_pris",1017
"658",-93.627618,41.6612998,"Saylor township","local_jail",1017
"659",-96.7260786,33.1749489,"McKinney CCD","local_jail",1015
"660",-83.3055842,33.1092363,"Milledgeville CCD","state_pris",1014
"661",-109.5368827,32.7171712,"Safford CCD","state_pris",1013
"662",-86.614576,34.779183,"Huntsville CCD","local_jail",1012
"663",-88.988739,37.6441072,"Southern precinct","fed_pris",1006
"664",-98.2370322,36.5612178,"Helena CCD","state_pris",1003
"665",-91.3356494,40.6263605,"Madison township","state_pris",1002
"666",-94.8948647,29.2287059,"Galveston CCD","local_jail",1002
"667",-77.5642803,36.2981521,"Halifax township","state_pris",1001
"668",-94.1191423,45.5376809,"St. Cloud city","state_pris",1000
"669",-80.5558801,35.6552033,"Locke township","state_pris",1000
"670",-97.6233928,29.9104988,"Lockhart CCD","state_pris",1000
"671",-88.1354755,37.0924072,"Eddyville CCD","state_pris",999
"672",-74.887735,40.379051,"West Amwell township","local_jail",998
"673",-102.2113995,39.307285,"Burlington CCD","state_pris",997
"674",-95.738133,29.5021791,"Rosenberg-Richmond CCD","local_jail",997
"675",-90.199253,39.7272902,"Jacksonville No. 4 precinct","state_pris",996
"676",-83.1682357,38.1386646,"Sandy Hook CCD","state_pris",996
"677",-99.4133346,34.9928995,"Granite CCD","state_pris",996
"678",-85.9346001,41.5584356,"Harrison township","local_jail",995
"679",-80.0596566,41.8018353,"Cambridge Springs borough","state_pris",994
"680",-85.2107604,34.2377331,"Rome CCD","local_jail",993
"681",-121.5899645,36.7046927,"Salinas CCD","local_jail",992
"682",-74.4794546,40.4503865,"North Brunswick township","local_jail",989
"683",-90.7727308,44.2876908,"Brockway town","state_pris",988
"684",-122.624012,45.5467708,"Portland East CCD","local_jail",986
"685",-78.6164075,40.5395405,"Allegheny township","fed_pris",983
"686",-75.4898103,44.3550917,"Gouverneur town","state_pris",981
"687",-78.789188,35.3711036,"Lillington township","state_pris",981
"688",-92.9653026,45.6874417,"Rush City city","state_pris",980
"689",-85.4589909,30.3986805,"Youngstown CCD","state_pris",979
"690",-79.5846623,40.2819759,"Hempfield township","state_pris",978
"691",-100.7708392,35.4298633,"Lefors CCD","state_pris",978
"692",-117.2333829,34.5502881,"Victorville-Hesperia CCD","state_pris",977
"693",-81.2704779,26.8941322,"Southwest Glades CCD","state_pris",975
"694",-82.3682202,29.6464292,"Gainesville CCD","local_jail",974
"695",-84.0957412,30.5293575,"East Leon CCD","fed_pris",972
"696",-105.1279557,39.7548975,"Northeast Jefferson CCD","fed_pris",968
"697",-93.4742856,39.8377846,"Rich Hill township","state_pris",968
"698",-98.1544769,28.5194497,"Three Rivers CCD","fed_pris",967
"699",-81.1711709,35.8994234,"Taylorsville township","state_pris",966
"700",-89.0745198,42.2486778,"Rockford township","local_jail",963
"701",-122.6820138,38.4645578,"Santa Rosa CCD","local_jail",962
"702",-91.1812857,31.2532625,"District 5","state_pris",959
"703",-76.9179277,35.9684587,"Windsor township","state_pris",955
"704",-78.7327118,36.1282165,"Dutchville township","state_pris",955
"705",-79.450153,34.7416691,"Stewartsville township","state_pris",955
"706",-95.4307023,30.6159843,"New Waverly CCD","state_pris",955
"707",-84.9635634,32.4580437,"Columbus West CCD","local_jail",953
"708",-74.7373791,39.4819493,"Hamilton township","local_jail",953
"709",-83.3272717,43.0450768,"Lapeer city","state_pris",952
"710",-86.1586114,32.5320752,"Wetumpka CCD","state_pris",951
"711",-69.2431925,44.128546,"Warren town","state_pris",951
"712",-76.3009901,40.0420608,"Lancaster city","local_jail",950
"713",-92.4772105,44.0154424,"Rochester city","fed_pris",949
"714",-87.1144245,37.3044253,"Central City CCD","state_pris",949
"715",-77.9888449,35.9836198,"Nashville township","state_pris",947
"716",-90.1449847,29.9270872,"District 2","local_jail",943
"717",-103.5935292,39.3429379,"Limon CCD","state_pris",939
"718",-95.3388114,30.2218532,"Southeast Montgomery CCD","local_jail",938
"719",-85.3396863,35.5847341,"District 1","state_pris",931
"720",-91.6575125,41.7015228,"Clear Creek township","state_pris",928
"721",-93.5199973,30.5597877,"District 1","state_pris",921
"722",-84.3310896,30.4232332,"Tallahassee Southwest CCD","local_jail",921
"723",-91.3317523,32.2933545,"District 2","local_jail",920
"724",-101.8866894,33.5760512,"Lubbock CCD","state_pris",919
"725",-80.9904703,34.0151303,"Columbia CCD","local_jail",919
"726",-74.1370633,40.5638553,"Staten Island borough","state_pris",918
"727",-78.2765907,36.4652304,"Nutbush township","state_pris",917
"728",-120.9690842,37.6522368,"Modesto CCD","local_jail",917
"729",-90.4251307,32.2537918,"District 4","local_jail",915
"730",-86.297411,32.3786468,"Montgomery CCD","fed_pris",914
"731",-82.3682202,29.6464292,"Gainesville CCD","state_pris",912
"732",-110.1106449,32.658135,"Bonita-Klondyke CCD","state_pris",911
"733",-76.3064768,36.341881,"Providence township","state_pris",911
"734",-73.1957339,41.1873858,"Bridgeport town","state_pris",910
"735",-91.5471615,40.9622052,"Mount Pleasant city","state_pris",906
"736",-96.2052836,40.3850236,"Nemaha precinct","state_pris",904
"737",-92.4120713,34.7417737,"Big Rock township","state_pris",903
"738",-89.4422681,34.7931109,"District 1","state_pris",903
"739",-90.7566351,37.9199357,"Breton township","state_pris",899
"740",-87.9666952,43.0633484,"Milwaukee city","local_jail",899
"741",-82.4397403,28.0194565,"Tampa CCD","local_jail",898
"742",-76.8032025,40.2464048,"Swatara township","local_jail",897
"743",-124.4501363,48.247281,"Clallam Bay-Neah Bay CCD","state_pris",896
"744",-81.7168573,28.7544757,"Tavares CCD","local_jail",895
"745",-82.021331,33.4446911,"Augusta CCD","local_jail",894
"746",-85.6555701,42.961156,"Grand Rapids city","local_jail",891
"747",-83.7885775,32.8029123,"Lizella CCD","state_pris",890
"748",-79.1215415,40.6478069,"White township","state_pris",889
"749",-83.6894103,32.8447808,"Macon West CCD","local_jail",889
"750",-90.3024688,33.3778798,"District 5","state_pris",882
"751",-83.2910907,33.0008571,"Coopers CCD","state_pris",880
"752",-116.915906,33.93885,"San Gorgonio Pass CCD","local_jail",879
"753",-76.8774236,42.0499738,"Southport town","state_pris",878
"754",-84.5655217,39.3943278,"Hamilton city","local_jail",878
"755",-85.1308303,35.0242855,"District 7","local_jail",878
"756",-104.4022089,40.1412844,"Keenesburg-Hudson CCD","state_pris",871
"757",-93.9591808,29.9439502,"Port Arthur CCD","local_jail",871
"758",-78.8596862,42.8924919,"Buffalo city","local_jail",868
"759",-74.19353,40.6662613,"Elizabeth city","local_jail",866
"760",-97.3926871,42.8897507,"Yankton city","fed_pris",864
"761",-81.7356831,26.1621964,"Naples CCD","local_jail",863
"762",-96.612243,31.5326353,"Groesbeck CCD","local_jail",863
"763",-82.9173423,30.1941888,"McAlpin-Wellborn CCD","state_pris",861
"764",-80.5388225,34.0890855,"Rembert CCD","state_pris",861
"765",-115.1158559,36.1295524,"Las Vegas CCD","state_pris",858
"766",-102.3350117,33.1083848,"Brownfield CCD","state_pris",858
"767",-81.2514498,33.9750383,"Lexington CCD","local_jail",857
"768",-79.8933242,35.3547912,"Troy township","state_pris",855
"769",-89.4301208,43.0878055,"Madison city","local_jail",855
"770",-85.5348108,30.1592218,"Panama City CCD","local_jail",854
"771",-88.5648207,46.7462963,"Baraga township","state_pris",853
"772",-117.2333829,34.5502881,"Victorville-Hesperia CCD","local_jail",852
"773",-86.5105777,46.4024778,"Munising township","state_pris",847
"774",-77.5474518,38.7210036,"Brentsville district","local_jail",842
"775",-105.9871996,35.3753089,"Santa Fe South CCD","state_pris",839
"776",-82.0775879,37.2454735,"South Grundy district","state_pris",839
"777",-122.0296674,38.2073034,"Fairfield-Suisun City CCD","local_jail",839
"778",-82.4497743,27.3156121,"Sarasota CCD","local_jail",837
"779",-78.5206134,42.9072561,"Alden town","local_jail",837
"780",-80.1331417,37.3126764,"Catawba district","local_jail",832
"781",-96.4723265,35.5170141,"Boley CCD","state_pris",831
"782",-84.0614178,31.5347579,"East Dougherty CCD","local_jail",829
"783",-122.622224,47.3222586,"Gig Harbor Peninsula CCD","state_pris",827
"784",-83.7999335,36.0598478,"District 8","local_jail",827
"785",-96.3469976,30.6458811,"Bryan-College Station CCD","fed_pris",824
"786",-83.902598,34.0202137,"Dacula-Rocky Creek CCD","state_pris",824
"787",-98.228488,38.7328041,"Ellsworth city","state_pris",824
"788",-83.7386267,37.6383717,"Beattyville CCD","state_pris",819
"789",-89.4658661,43.5489507,"Portage city","state_pris",818
"790",-94.9195096,38.8061328,"Gardner township","local_jail",816
"791",-116.815378,32.6787552,"Jamul CCD","fed_pris",811
"792",-89.0899807,30.350163,"District 4","local_jail",811
"793",-106.6556843,32.3222342,"Las Cruces CCD","local_jail",811
"794",-95.4888756,29.2401918,"Angleton CCD","local_jail",810
"795",-76.7514612,39.2082716,"District 1, Elkridge","state_pris",807
"796",-76.2909813,44.1147661,"Cape Vincent town","state_pris",804
"797",-75.6659078,41.4041782,"Scranton city","local_jail",803
"798",-122.2239551,37.7717943,"Oakland CCD","local_jail",801
"799",-94.1229613,33.4715695,"Texarkana CCD","local_jail",799
"800",-84.6755125,33.746536,"Douglasville-Lithia Springs CCD","local_jail",798
"801",-71.2609443,42.559693,"Billerica town","local_jail",798
"802",-89.4253343,42.9857823,"Fitchburg city","state_pris",795
"803",-112.2448091,41.2329661,"Northwest Weber CCD","local_jail",795
"804",-72.924953,41.3108088,"New Haven town","state_pris",793
"805",-90.7721785,29.265568,"District 7","local_jail",789
"806",-65.7901475,18.3864872,"Zarzal barrio","state_pris",787
"807",-88.090736,41.8585485,"Milton township","local_jail",786
"808",-81.9897648,35.6118924,"Glenwood township","state_pris",785
"809",-79.117913,34.5814756,"Back Swamp township","state_pris",785
"810",-85.3371857,37.5856916,"St. Mary CCD","state_pris",784
"811",-86.0592203,33.9775084,"Gadsden CCD","local_jail",784
"812",-79.460235,42.3701978,"Portland town","state_pris",783
"813",-97.9523247,26.3046088,"Edcouch-Elsa CCD","local_jail",783
"814",-84.1996317,39.7773943,"Dayton city","local_jail",781
"815",-83.918536,33.0955515,"Forsyth CCD","state_pris",780
"816",-91.8447512,31.7709174,"District 4","state_pris",778
"817",-120.6283332,46.6332178,"Yakima CCD","local_jail",778
"818",-82.5361807,37.0269992,"District 2","state_pris",776
"819",-85.0350051,33.5848058,"Carrollton CCD","local_jail",776
"820",-85.1620947,41.0523756,"Wayne township","local_jail",774
"821",-92.2416059,46.8066817,"Hermantown city","fed_pris",772
"822",-77.1473913,35.3098911,"Township 1","state_pris",772
"823",-81.8565394,27.7822905,"Bartow CCD","local_jail",772
"824",-80.2605782,36.1032616,"Winston township","local_jail",768
"825",-75.6590737,39.9089997,"Pocopson township","local_jail",767
"826",-86.9018159,36.2567558,"District 1","state_pris",766
"827",-122.9773935,44.9453795,"Salem CCD","local_jail",766
"828",-87.8736961,42.5847398,"Kenosha city","local_jail",765
"829",-93.1346353,30.21803,"District 4","state_pris",764
"830",-71.4361957,42.3079052,"Framingham town","state_pris",763
"831",-76.6347808,36.6971573,"Suffolk city","local_jail",762
"832",-71.2771536,44.4843111,"Berlin city","fed_pris",758
"833",-84.2735924,33.2576552,"Griffin CCD","local_jail",758
"834",-81.3063416,28.7750636,"Sanford CCD","local_jail",757
"835",-76.2361373,35.587326,"Fairfield township","state_pris",752
"836",-77.9807824,37.6136362,"District 5","state_pris",748
"837",-80.2353772,26.8179811,"Royal Palm Beach-West Jupiter CCD","local_jail",747
"838",-97.8086801,33.2065698,"Bridgeport CCD","state_pris",746
"839",-94.5861575,38.9200435,"Kaw township","local_jail",744
"840",-94.6443069,34.8311979,"Heavener CCD","state_pris",743
"841",-117.1708339,33.1625676,"Oceanside-Escondido CCD","local_jail",743
"842",-77.2764607,39.2312843,"District 2","local_jail",743
"843",-77.9208211,34.5446157,"Burgaw township","state_pris",742
"844",-88.0825688,41.5082947,"Joliet township","local_jail",742
"845",-101.8866894,33.5760512,"Lubbock CCD","local_jail",738
"846",-95.3289339,32.382619,"Tyler CCD","local_jail",737
"847",-84.2642049,33.7369391,"Atlanta-Decatur CCD","state_pris",735
"848",-156.4793696,20.878197,"Kahului CCD","state_pris",732
"849",-74.0456981,40.8893976,"Hackensack city","local_jail",732
"850",-111.7104149,40.0238359,"Spanish Fork-Payson CCD","local_jail",732
"851",-80.3460074,26.0736054,"Davie CCD","state_pris",731
"852",-99.9731167,39.9145208,"Center-District 1 township","state_pris",731
"853",-79.6180454,35.0503203,"Beaverdam township","state_pris",731
"854",-75.1404388,40.2977155,"Doylestown township","local_jail",729
"855",-79.0307607,38.1256482,"Beverley Manor district","local_jail",729
"856",-67.072688,18.4813133,"Guerrero barrio","state_pris",727
"857",-122.6466569,45.6766541,"Vancouver CCD","local_jail",727
"858",-78.412338,37.2928371,"District 701","local_jail",725
"859",-85.3586056,38.2181996,"Simpsonville CCD","state_pris",719
"860",-116.7355794,43.649516,"Caldwell CCD","local_jail",719
"861",-80.4283652,25.3241889,"Homestead CCD","state_pris",718
"862",-122.3217657,37.9842114,"West Contra Costa CCD","local_jail",713
"863",-75.2185477,40.6859711,"Easton city","local_jail",713
"864",-87.0325479,34.5744143,"Decatur CCD","state_pris",712
"865",-91.8821697,32.4530173,"District 8","state_pris",708
"866",-94.7716329,32.5062336,"Longview CCD","local_jail",708
"867",-90.0784853,38.6331033,"Canteen township","state_pris",701
"868",-87.8488196,42.3747967,"Waukegan township","local_jail",701
"869",-97.7669337,26.4853404,"Raymondville CCD","local_jail",700
"870",-107.051051,32.3457031,"Fairacres CCD","state_pris",699
"871",-96.0419269,41.2646751,"Omaha city","state_pris",697
"872",-93.2682835,44.9633235,"Minneapolis city","local_jail",696
"873",-87.9841686,44.5206763,"Green Bay city","local_jail",695
"874",-78.7345642,34.3622711,"Whiteville township","state_pris",691
"875",-87.5396915,38.0459993,"Center township","local_jail",691
"876",-80.6400606,37.0006776,"Ingles district","local_jail",691
"877",-73.9701736,40.7765574,"Manhattan borough","local_jail",689
"878",-82.1481054,34.189528,"Greenwood CCD","state_pris",685
"879",-73.7855998,42.7433318,"Colonie town","local_jail",680
"880",-77.5146266,37.6429507,"Brookland district","local_jail",679
"881",-84.4422825,42.5806927,"Mason city","local_jail",677
"882",-97.4702914,31.0481201,"Belton CCD","local_jail",677
"883",-84.1348877,33.4778002,"McDonough CCD","local_jail",675
"884",-81.5214295,41.0804559,"Akron city","local_jail",674
"885",-79.0810985,33.836402,"Conway CCD","local_jail",673
"886",-70.4053294,43.7946894,"Windham town","state_pris",671
"887",-88.440266,43.7721533,"Fond du Lac city","state_pris",670
"888",-93.7135949,30.8143284,"Newton CCD","local_jail",666
"889",-87.8070858,42.7282842,"Racine city","local_jail",666
"890",-119.2821435,46.2193621,"Richland-Kennewick CCD","local_jail",663
"891",-120.5523776,37.223493,"Merced CCD","local_jail",661
"892",-87.2664896,30.3482283,"Pensacola CCD","fed_pris",660
"893",-74.5716572,40.0155348,"New Hanover township","state_pris",660
"894",-74.3649618,41.2596137,"Warwick town","state_pris",655
"895",-96.7655647,35.9951736,"Cushing CCD","state_pris",652
"896",-82.169162,28.2492126,"Zephyrhills CCD","state_pris",650
"897",-93.9050998,32.3021475,"District 11","state_pris",650
"898",-83.9021775,33.598562,"Covington-Porterdale CCD","local_jail",650
"899",-95.9964393,34.2947188,"Central Atoka CCD","state_pris",648
"900",-67.1207184,18.2054298,"Mayagüez Arriba barrio","state_pris",646
"901",-88.3209984,41.9415092,"St. Charles township","local_jail",644
"902",-83.6919833,43.0244249,"Flint city","local_jail",644
"903",-107.3673125,41.7068338,"Rawlins CCD","state_pris",643
"904",-120.7915137,44.6575413,"Ashwood CCD","state_pris",642
"905",-74.3524707,41.381005,"Goshen town","local_jail",641
"906",-91.2569118,32.7217538,"District 2","local_jail",640
"907",-78.3558204,35.5776892,"Wilson Mills township","state_pris",639
"908",-84.2052049,31.7219883,"Leesburg CCD","state_pris",638
"909",-83.319023,30.7587208,"Valdosta CCD","local_jail",638
"910",-86.9442473,37.7571692,"Whitesville-Philpot CCD","local_jail",638
"911",-80.9525633,37.1820253,"District 3","state_pris",637
"912",-115.5991053,32.7777185,"El Centro CCD","local_jail",637
"913",-107.9932569,36.8969753,"Aztec CCD","local_jail",631
"914",-80.2169587,27.2036652,"Stuart CCD","local_jail",630
"915",-92.8588801,37.1832011,"Diggins township","state_pris",629
"916",-103.3607352,36.1168073,"Clayton South CCD","state_pris",629
"917",-149.2743541,61.177549,"Anchorage census subarea","local_jail",629
"918",-117.3615193,47.6680079,"Spokane CCD","local_jail",629
"919",-86.7517537,36.1727847,"District 6","local_jail",628
"920",-81.8705262,33.7032284,"Trenton CCD","state_pris",627
"921",-76.2590306,35.949402,"Columbia township","state_pris",626
"922",-149.407974,62.1821735,"Matanuska-Susitna census subarea","state_pris",625
"923",-85.8268202,37.6922238,"Elizabethtown CCD","local_jail",625
"924",-80.0735032,42.1165941,"Erie city","local_jail",622
"925",-80.1510227,26.3008862,"Deerfield Beach CCD","fed_pris",619
"926",-111.6426222,48.4916196,"Shelby CCD","state_pris",619
"927",-72.9598403,40.8574476,"Brookhaven town","local_jail",618
"928",-81.9509017,36.7277428,"Harrison district","local_jail",617
"929",-85.2380453,34.8133935,"Rock Spring CCD","state_pris",616
"930",-87.5481977,33.2014317,"Tuscaloosa CCD","local_jail",615
"931",-76.5217187,37.0759784,"Newport News city","local_jail",611
"932",-71.1794622,42.2468719,"Dedham town","local_jail",610
"933",-105.9985878,34.8254918,"Estancia CCD","local_jail",609
"934",-73.2931691,41.3980947,"Newtown town","state_pris",608
"935",-86.3983814,35.85081,"District 16","local_jail",608
"936",-98.6468587,26.5985884,"Rio Grande City CCD","local_jail",607
"937",-92.3004766,31.8432326,"District 3","state_pris",604
"938",-119.200331,35.6854889,"Delano-McFarland CCD","local_jail",604
"939",-86.3051382,37.4693765,"Leitchfield CCD","local_jail",602
"940",-86.4587128,36.9716139,"Bowling Green CCD","local_jail",601
"941",-93.9232942,33.4534998,"Garland township","state_pris",599
"942",-82.9866594,39.9837842,"Columbus city","state_pris",596
"943",-94.0562518,30.9726344,"Jasper CCD","state_pris",595
"944",-84.8032312,34.1837477,"Cartersville CCD","local_jail",594
"945",-71.4438932,42.9846891,"Manchester city","local_jail",593
"946",-81.561989,30.4841388,"Jacksonville North CCD","local_jail",592
"947",-86.2762838,41.669968,"Portage township","local_jail",592
"948",-85.381414,38.7812785,"Madison township","state_pris",591
"949",-90.5266927,30.6996192,"District 3","local_jail",591
"950",-98.007037,34.9913063,"Chickasha CCD","local_jail",590
"951",-96.8740385,31.3409711,"Marlin CCD","local_jail",590
"952",-122.0375418,37.9003583,"Central Contra Costa CCD","local_jail",589
"953",-93.4748995,44.7701461,"Shakopee city","state_pris",588
"954",-92.4779482,30.8514035,"District 4","state_pris",586
"955",-92.4143041,31.4014793,"District A","state_pris",586
"956",-105.0892903,40.5809378,"Fort Collins CCD","local_jail",581
"957",-99.0735686,28.4216126,"Cotulla CCD","state_pris",580
"958",-101.7536489,34.5542087,"Tulia CCD","state_pris",578
"959",-122.8650128,45.4451446,"Beaverton-Hillsboro CCD","local_jail",578
"960",-111.8827119,40.923042,"South Davis CCD","local_jail",578
"961",-98.7582769,36.8684408,"Alva CCD","state_pris",577
"962",-114.5272322,32.7212999,"Yuma CCD","local_jail",577
"963",-82.6330435,35.7121388,"French Broad township","state_pris",575
"964",-76.5271135,35.2325159,"Township 4","state_pris",575
"965",-80.2000075,35.457074,"Harris township","state_pris",575
"966",-98.7854292,31.0693309,"San Saba CCD","state_pris",575
"967",-82.2864262,36.5245193,"District 4","local_jail",575
"968",-92.1244134,36.1538926,"Union township","state_pris",574
"969",-91.35654,33.4819845,"Bowie township","state_pris",573
"970",-107.97143,34.9812298,"Grants CCD","state_pris",573
"971",-85.2292672,42.2991758,"Battle Creek city","local_jail",573
"972",-84.8128469,30.6384537,"Chattahoochee CCD","state_pris",572
"973",-90.2445816,38.6356988,"St. Louis city","local_jail",572
"974",-84.4603001,38.1407842,"Lexington-Fayette Northwest CCD","state_pris",568
"975",-80.8370048,39.268724,"Pine district","local_jail",567
"976",-75.9190257,43.9328131,"Watertown town","state_pris",565
"977",-80.2141332,33.2634184,"Cross CCD","state_pris",563
"978",-95.0973085,36.6367358,"Vinita East CCD","state_pris",561
"979",-122.624012,45.5467708,"Portland East CCD","state_pris",561
"980",-78.5326047,37.8764365,"Scottsville district","local_jail",560
"981",-81.1047175,39.4067864,"District D","state_pris",558
"982",-96.9796742,37.2427744,"Winfield city","state_pris",557
"983",-121.5599876,39.5431739,"Oroville CCD","local_jail",557
"984",-79.9584716,37.2778301,"Roanoke city","local_jail",555
"985",-95.6948257,39.03617,"Topeka city","state_pris",553
"986",-84.5389023,34.2343898,"Canton CCD","local_jail",553
"987",-98.5500206,33.9290734,"Wichita Falls CCD","local_jail",553
"988",-149.5712138,60.0874114,"Seward-Hope census subarea","state_pris",549
"989",-93.3955758,41.6509838,"Beaver township","state_pris",549
"990",-97.3856388,32.7534125,"Fort Worth CCD","state_pris",549
"991",-121.1223601,38.9388984,"Auburn CCD","local_jail",549
"992",-104.6944326,40.4438518,"Greeley CCD","local_jail",549
"993",-86.4267543,36.3836784,"District 5","local_jail",549
"994",-76.1435544,43.0409981,"Syracuse city","local_jail",548
"995",-86.2819616,33.3805486,"Renfroe-Laniers CCD","state_pris",546
"996",-76.5237475,38.9713568,"District 6","local_jail",546
"997",-87.5801044,37.8366658,"Henderson CCD","local_jail",544
"998",-77.1007034,38.8783374,"Arlington","local_jail",544
"999",-84.2217056,32.0475187,"Americus CCD","local_jail",543
"1000",-78.9007419,35.068735,"Cross Creek township","local_jail",543
"1001",-80.6459017,41.099095,"Youngstown city","state_pris",541
"1002",-78.6497093,35.7923634,"Raleigh township","local_jail",540
"1003",-82.3473963,38.4291332,"District 3","local_jail",540
"1004",-111.3662497,35.1066114,"Flagstaff CCD","local_jail",538
"1005",-88.4042319,42.3744867,"Greenwood township","local_jail",537
"1006",-81.8366872,26.8761018,"Punta Gorda CCD","local_jail",536
"1007",-111.7768987,34.6916906,"Camp Verde-Sedona CCD","local_jail",535
"1008",-79.1954582,37.3990161,"Lynchburg city","local_jail",535
"1009",-83.2696571,31.5581976,"Ocilla CCD","local_jail",534
"1010",-75.2279544,39.4275181,"Bridgeton city","local_jail",534
"1011",-87.4872844,36.8929251,"Hopkinsville CCD","local_jail",533
"1012",-84.4058582,41.4670003,"Springfield township","local_jail",533
"1013",-102.367621,31.9276128,"Odessa CCD","local_jail",533
"1014",-116.2867164,46.4710921,"Nez Perce CCD","state_pris",531
"1015",-100.3199965,44.3751628,"Pierre city","state_pris",529
"1016",-117.7241772,33.700735,"Irvine-Lake Forest CCD","local_jail",526
"1017",-74.1662143,39.9943137,"Toms River township","local_jail",526
"1018",-94.9682664,30.2917875,"Cleveland CCD","state_pris",525
"1019",-78.9194227,36.0221336,"Durham township","local_jail",525
"1020",-90.7470162,30.558378,"District 1","local_jail",524
"1021",-93.1346353,30.21803,"District 4","local_jail",522
"1022",-82.3424692,28.8258641,"Inverness CCD","local_jail",521
"1023",-85.2568926,35.0663483,"District 4","local_jail",521
"1024",-82.5275686,28.524328,"Spring Hill CCD","local_jail",520
"1025",-104.7946972,38.1892995,"Pueblo CCD","local_jail",519
"1026",-78.1250136,39.2462466,"Stonewall district","local_jail",519
"1027",-100.7701017,46.8110381,"Bismarck city","state_pris",517
"1028",-76.9293818,39.3952452,"District 5, Freedom","state_pris",514
"1029",-98.3460839,27.8873624,"San Diego CCD","state_pris",514
"1030",-94.1665396,36.0715607,"Fayetteville township","local_jail",512
"1031",-84.4438653,39.0444144,"Newport-Fort Thomas CCD","local_jail",512
"1032",-94.8632587,40.3520941,"Polk township","state_pris",511
"1033",-91.1387618,43.0436353,"Prairie du Chien city","state_pris",511
"1034",-75.6248619,38.3765204,"District 9, Salisbury","local_jail",511
"1035",-78.2939679,35.0269717,"North Clinton township","state_pris",509
"1036",-86.297411,32.3786468,"Montgomery CCD","local_jail",509
"1037",-86.978495,41.4770927,"Washington township","local_jail",508
"1038",-81.2704779,26.8941322,"Southwest Glades CCD","local_jail",506
"1039",-92.4333604,35.0885706,"Cadron township","state_pris",505
"1040",-90.4542946,29.9706433,"District 1","local_jail",504
"1041",-86.5111283,30.7863146,"Crestview CCD","local_jail",502
"1042",-88.9733745,39.9200196,"Hickory Point township","state_pris",501
"1043",-78.6888447,43.1492492,"Lockport town","local_jail",501
"1044",-94.9137477,32.2750691,"Overton CCD","state_pris",500
"1045",-111.3904801,32.3216034,"Marana CCD","state_pris",499
"1046",-104.2434881,42.0222019,"Torrington CCD","state_pris",499
"1047",-74.5267609,41.4572555,"Mount Hope town","state_pris",498
"1048",-77.690034,35.9938535,"Township 7, Swift Creek","state_pris",498
"1049",-84.5483391,39.038255,"Covington CCD","local_jail",498
"1050",-83.954716,43.4176784,"Saginaw city","local_jail",498
"1051",-84.7810767,37.6538573,"Danville CCD","state_pris",497
"1052",-84.3242365,39.7076102,"Jefferson township","state_pris",497
"1053",-82.6738464,34.4962263,"Anderson CCD","local_jail",497
"1054",-79.2607283,36.862543,"Banister district","state_pris",496
"1055",-88.7032559,43.4029044,"Juneau city","local_jail",496
"1056",-81.3433367,32.3617106,"Guyton-Springfield CCD","state_pris",495
"1057",-84.0162282,33.6538147,"Conyers CCD","local_jail",495
"1058",-87.0325479,34.5744143,"Decatur CCD","local_jail",493
"1059",-86.8527719,40.4287122,"Fairfield township","local_jail",493
"1060",-83.1022365,42.3830375,"Detroit city","local_jail",489
"1061",-79.8650654,36.088997,"Morehead township","local_jail",489
"1062",-79.5846623,40.2819759,"Hempfield township","local_jail",489
"1063",-86.7912146,36.1647155,"District 19","local_jail",489
"1064",-120.6790891,35.2348219,"San Luis Obispo CCD","local_jail",487
"1065",-98.8234128,32.8477997,"Breckenridge North CCD","state_pris",486
"1066",-87.7057499,30.8067832,"Bay Minette CCD","local_jail",486
"1067",-93.5665277,45.3322125,"Elk River city","local_jail",486
"1068",-82.2265307,39.5071725,"Ward township","state_pris",485
"1069",-91.3893365,44.934888,"Chippewa Falls city","state_pris",485
"1070",-91.1962125,32.4182158,"District 4","local_jail",484
"1071",-77.9146661,34.3194929,"Cape Fear township","local_jail",484
"1072",-71.2556036,42.1462862,"Walpole town","state_pris",482
"1073",-119.3685308,35.1245784,"West Kern CCD","state_pris",481
"1074",-80.4083299,27.703769,"Vero Beach CCD","local_jail",480
"1075",-104.0723132,37.4522765,"Model CCD","state_pris",479
"1076",-155.2335958,19.6869881,"Hilo CCD","state_pris",478
"1077",-97.4438448,32.2859713,"Cleburne CCD","local_jail",478
"1078",-122.7722744,46.8392988,"Thurston South CCD","state_pris",477
"1079",-83.7192855,32.469833,"Perry CCD","local_jail",476
"1080",-91.8865735,30.0364233,"District 3","local_jail",476
"1081",-75.9180543,42.130568,"Dickinson town","local_jail",476
"1082",-88.6899002,30.9477112,"District 4","state_pris",474
"1083",-76.0717952,43.0538905,"De Witt town","local_jail",474
"1084",-78.2613887,35.9143638,"Dunn township","state_pris",473
"1085",-80.6459017,41.099095,"Youngstown city","local_jail",471
"1086",-75.8756889,41.2465609,"Wilkes-Barre city","local_jail",471
"1087",-75.3359107,43.1357396,"Whitestown town","local_jail",469
"1088",-81.6993048,29.9227272,"Green Cove Springs CCD","local_jail",468
"1089",-85.8769559,33.6710509,"Anniston CCD","local_jail",467
"1090",-81.4000303,29.9826024,"St. Augustine CCD","local_jail",467
"1091",-97.9613619,29.6142434,"Seguin CCD","local_jail",465
"1092",-107.7334201,32.400578,"Deming North CCD","local_jail",464
"1093",-73.6656995,43.2474225,"Moreau town","state_pris",462
"1094",-77.3485844,36.3293065,"Roanoke township","state_pris",462
"1095",-95.6948257,39.03617,"Topeka city","local_jail",462
"1096",-96.6803544,40.8089574,"Lincoln city","local_jail",462
"1097",-93.4625762,45.0220449,"Plymouth city","local_jail",461
"1098",-90.900072,30.1431648,"District 2","local_jail",460
"1099",-108.1453796,38.7549302,"Delta CCD","state_pris",459
"1100",-93.1038552,44.9488695,"St. Paul city","local_jail",459
"1101",-71.9574015,41.7872432,"Brooklyn town","state_pris",458
"1102",-123.132899,44.0498773,"Eugene-Springfield CCD","local_jail",457
"1103",-81.1799526,35.2378473,"Gastonia township","local_jail",455
"1104",-122.8589291,47.0616888,"Olympia CCD","local_jail",452
"1105",-87.8070858,42.7282842,"Racine city","state_pris",450
"1106",-87.4742849,37.3022339,"Madisonville CCD","local_jail",450
"1107",-82.8426596,36.662253,"District 6","local_jail",450
"1108",-81.5676482,29.6440869,"East Palatka CCD","state_pris",449
"1109",-92.8129165,45.033767,"Oak Park Heights city","state_pris",448
"1110",-81.4880225,31.168713,"Brunswick CCD","local_jail",448
"1111",-77.5467537,37.8562403,"Beaverdam district","local_jail",448
"1112",-108.5838526,39.0776066,"Grand Junction CCD","local_jail",447
"1113",-83.7046076,33.7830512,"Monroe CCD","local_jail",447
"1114",-76.9780045,37.5267081,"District 3","local_jail",447
"1115",-82.0776308,38.9063184,"Robinson district","state_pris",446
"1116",-82.5527383,35.570977,"Asheville city","local_jail",446
"1117",-86.5892799,33.1704668,"Columbiana CCD","local_jail",443
"1118",-96.5102719,31.6872247,"Mexia CCD","state_pris",442
"1119",-76.3838735,40.3058948,"South Lebanon township","local_jail",442
"1120",-85.3766169,31.2185636,"Dothan CCD","local_jail",439
"1121",-70.5918241,41.7174595,"Bourne town","local_jail",438
"1122",-89.701412,40.6683734,"Limestone township","local_jail",436
"1123",-88.2450618,43.0090837,"Waukesha city","local_jail",435
"1124",-90.6983969,43.1428434,"Boscobel city","state_pris",433
"1125",-82.4603351,36.2994913,"District 6","local_jail",433
"1126",-76.6622798,37.2232682,"Roberts district","local_jail",432
"1127",-83.3271521,33.986412,"Winterville CCD","state_pris",431
"1128",-74.3983323,43.0443221,"Johnstown town","state_pris",431
"1129",-77.3762738,35.6069155,"Greenville township","local_jail",431
"1130",-84.5787704,30.9055418,"Bainbridge CCD","local_jail",430
"1131",-77.4108678,39.4197408,"District 2, Frederick","local_jail",430
"1132",-87.9156203,41.0394136,"Otto township","local_jail",429
"1133",-93.0310604,45.0190146,"Maplewood city","local_jail",429
"1134",-78.740962,40.4937748,"Cambria township","local_jail",429
"1135",-86.9250718,30.6234528,"East Milton CCD","local_jail",428
"1136",-122.4290283,48.733542,"Bellingham CCD","local_jail",428
"1137",-91.2569118,32.7217538,"District 2","state_pris",427
"1138",-105.2319128,40.0095668,"Boulder CCD","local_jail",426
"1139",-79.117643,37.4346014,"District 5","state_pris",425
"1140",-82.5275686,28.524328,"Spring Hill CCD","state_pris",424
"1141",-77.7761329,39.6441932,"District 24, Cedar Lawn","local_jail",424
"1142",-83.0559508,42.3953866,"Hamtramck city","local_jail",423
"1143",-99.0178311,31.6045559,"Brownwood CCD","state_pris",421
"1144",-81.3672284,40.8076499,"Canton city","local_jail",421
"1145",-84.6159321,30.5661734,"Quincy CCD","state_pris",420
"1146",-82.9116995,34.3081096,"Hartwell CCD","state_pris",420
"1147",-89.0131701,42.6846985,"Janesville city","local_jail",420
"1148",-95.738133,29.5021791,"Rosenberg-Richmond CCD","state_pris",419
"1149",-89.8524347,35.1470778,"District 1","state_pris",418
"1150",-76.9930244,38.5086192,"District 1, La Plata","local_jail",418
"1151",-82.4791808,42.9777431,"Port Huron charter township","local_jail",418
"1152",-113.7862916,37.2044691,"St. George CCD","local_jail",418
"1153",-98.6951375,46.9070805,"Jamestown city","state_pris",417
"1154",-98.2649456,30.8399436,"Burnet CCD","state_pris",417
"1155",-95.0649056,29.438943,"Texas City-League City CCD","state_pris",417
"1156",-94.3836565,35.3716307,"Upper township","local_jail",417
"1157",-73.6704874,44.8417303,"Altona town","state_pris",416
"1158",-97.5634499,35.4945311,"Oklahoma City Southwest CCD","state_pris",416
"1159",-91.9617116,31.1834878,"District 3","local_jail",416
"1160",-74.0462805,44.2061128,"North Elba town","state_pris",415
"1161",-116.5044756,45.9371504,"Cottonwood CCD","state_pris",414
"1162",-73.8379293,40.6585571,"Queens borough","state_pris",414
"1163",-119.9792976,37.035895,"Madera CCD","local_jail",414
"1164",-72.2194775,44.9417038,"Newport city","state_pris",413
"1165",-89.2869404,37.29605,"Tamms precinct","state_pris",411
"1166",-121.7536523,38.6664485,"Woodland CCD","local_jail",411
"1167",-93.2913048,37.194152,"Springfield township","local_jail",411
"1168",-74.4938027,40.7961313,"Morris township","local_jail",411
"1169",-77.1333954,40.2540926,"Middlesex township","local_jail",411
"1170",-100.4319186,31.4601032,"San Angelo CCD","local_jail",411
"1171",-86.4890564,42.0991274,"St. Joseph city","local_jail",410
"1172",-70.8836114,43.1864894,"Dover city","local_jail",409
"1173",-96.9756324,28.897687,"Victoria CCD","local_jail",409
"1174",-82.5513493,32.1697372,"Mount Vernon-Ailey CCD","state_pris",408
"1175",-98.2649456,30.8399436,"Burnet CCD","local_jail",407
"1176",-121.5881739,39.1533839,"Marysville CCD","local_jail",406
"1177",-79.4080707,36.5833337,"Danville city","local_jail",406
"1178",-149.2743541,61.177549,"Anchorage census subarea","state_pris",405
"1179",-117.9907386,34.4052594,"South Antelope Valley CCD","state_pris",404
"1180",-90.9613255,33.7680041,"District 1","state_pris",403
"1181",-70.1856443,43.6331917,"Portland city","local_jail",403
"1182",-85.018097,33.0185335,"LaGrange CCD","local_jail",401
"1183",-77.0820263,38.8183429,"Alexandria city","local_jail",400
"1184",-66.6169652,18.3705174,"Sabana Hoyos barrio","state_pris",398
"1185",-78.5698589,35.6969949,"St. Marys township","local_jail",398
"1186",-122.6005504,45.3875151,"Northwest Clackamas CCD","local_jail",398
"1187",-82.5120719,31.2500064,"Waresboro CCD","local_jail",397
"1188",-76.3392085,39.553667,"District 3, Bel Air","local_jail",397
"1189",-86.2554146,43.2282176,"Muskegon city","local_jail",397
"1190",-89.723352,31.1367158,"District 5","local_jail",397
"1191",-120.5740951,42.2038575,"Lakeview CCD","state_pris",394
"1192",-77.9146661,34.3194929,"Cape Fear township","state_pris",393
"1193",-105.9871996,35.3753089,"Santa Fe South CCD","local_jail",393
"1194",-96.7290519,43.5479691,"Sioux Falls city","local_jail",392
"1195",-124.099352,40.7093975,"Eureka CCD","local_jail",391
"1196",-82.108008,41.3735385,"Elyria city","local_jail",390
"1197",-97.8931746,30.049667,"Kyle-Buda CCD","state_pris",388
"1198",-89.2871308,36.5777731,"Hickman CCD","local_jail",388
"1199",-89.9862282,38.5150676,"Belleville township","local_jail",386
"1200",-90.8605256,39.6210927,"Pittsfield township","state_pris",384
"1201",-80.7426273,26.7602989,"Belle Glade-Pahokee CCD","local_jail",384
"1202",-81.3453782,27.4490451,"Sebring CCD","local_jail",383
"1203",-76.8473751,38.0336716,"District 5","local_jail",383
"1204",-85.738948,38.3145937,"Jeffersonville township","local_jail",381
"1205",-87.3474512,36.5304533,"District 17","local_jail",381
"1206",-99.1090164,28.8748706,"Pearsall CCD","local_jail",381
"1207",-97.8950395,32.6704891,"Weatherford CCD","local_jail",380
"1208",-78.0415857,38.2867781,"District 3","local_jail",379
"1209",-91.5072971,32.6436131,"District A","state_pris",378
"1210",-123.9877541,47.7189681,"West End CCD","state_pris",377
"1211",-114.0193735,35.5428079,"Kingman CCD","local_jail",377
"1212",-84.8101144,33.4099513,"Newnan CCD","local_jail",377
"1213",-92.5185315,31.3272087,"District I","local_jail",376
"1214",-78.1143587,41.1562246,"Karthaus township","state_pris",375
"1215",-84.9388043,34.7693875,"Dalton CCD","local_jail",374
"1216",-108.526225,45.7931974,"Billings CCD","local_jail",372
"1217",-98.4335988,34.5911301,"Lawton CCD","local_jail",371
"1218",-101.7919801,35.2351324,"Amarillo CCD","local_jail",371
"1219",-80.2554024,35.8564806,"Lexington township","state_pris",370
"1220",-152.3219731,60.3663727,"Kenai-Cook Inlet census subarea","state_pris",369
"1221",-72.4838129,43.2829902,"Springfield town","state_pris",369
"1222",-80.0365287,39.2893987,"Tygart district","state_pris",369
"1223",-122.1002147,47.1249829,"Buckley CCD","state_pris",368
"1224",-75.2794349,40.9367942,"Hamilton township","local_jail",368
"1225",-83.552666,35.8583945,"District 5","local_jail",368
"1226",-99.1764842,38.223473,"Pawnee township","state_pris",367
"1227",-73.9198692,41.6945945,"Poughkeepsie city","local_jail",367
"1228",-95.8249737,32.206562,"Athens CCD","local_jail",366
"1229",-77.5212218,37.4028359,"Dale district","local_jail",366
"1230",-116.0696446,33.5912971,"Coachella Valley CCD","local_jail",365
"1231",-122.7403218,45.5232381,"Portland West CCD","local_jail",365
"1232",-81.7538903,32.4740366,"Statesboro CCD","local_jail",364
"1233",-73.7860284,42.2519047,"Hudson city","state_pris",363
"1234",-75.15153,39.8379065,"Woodbury city","local_jail",363
"1235",-82.835414,36.1602374,"District 8","local_jail",362
"1236",-90.4588543,38.8723469,"Rivers township","local_jail",358
"1237",-88.3913963,44.2856109,"Appleton city","local_jail",358
"1238",-84.8848774,35.1357502,"District 5","local_jail",356
"1239",-80.2467266,40.1739629,"Washington city","local_jail",355
"1240",-88.7979392,35.6094088,"District 1","local_jail",354
"1241",-122.6303031,47.4825426,"Port Orchard CCD","local_jail",354
"1242",-81.8573511,32.1171997,"Claxton CCD","state_pris",353
"1243",-121.9745167,36.9708997,"Santa Cruz CCD","local_jail",352
"1244",-73.2605401,42.4520454,"Pittsfield city","local_jail",352
"1245",-85.018097,33.0185335,"LaGrange CCD","state_pris",351
"1246",-91.5764637,32.2813252,"District 4","local_jail",351
"1247",-83.7155914,42.2084006,"Pittsfield charter township","local_jail",346
"1248",-96.1967636,33.5543462,"Bonham CCD","local_jail",346
"1249",-123.2195965,39.1262918,"Ukiah CCD","local_jail",345
"1250",-83.551911,34.091744,"Jefferson CCD","local_jail",345
"1251",-79.6201948,34.0263408,"Pamplico CCD","local_jail",345
"1252",-82.0069198,24.5354143,"Key West CCD","local_jail",344
"1253",-80.5817047,35.4173057,"Township 12, Concord","local_jail",344
"1254",-79.832484,38.94985,"Leadsville district","local_jail",344
"1255",-74.7864522,39.9953512,"Mount Holly township","state_pris",343
"1256",-86.1360548,40.48351,"Center township","local_jail",343
"1257",-75.5940912,39.6548643,"New Castle CCD","state_pris",342
"1258",-92.4556818,31.3107307,"District D","local_jail",341
"1259",-83.9749341,35.7335535,"District 5","local_jail",341
"1260",-86.7579666,41.6387578,"Center township","local_jail",340
"1261",-92.4084854,32.7686427,"District 1","local_jail",340
"1262",-88.5286108,30.3933385,"District 2","local_jail",340
"1263",-94.7814649,30.0001881,"Liberty-Dayton CCD","local_jail",339
"1264",-96.1036869,35.9674374,"Sapulpa CCD","local_jail",338
"1265",-91.103863,31.6982365,"District 3","state_pris",336
"1266",-90.2137704,32.5722029,"District 4","local_jail",336
"1267",-80.0507805,33.1702098,"Moncks Corner CCD","local_jail",336
"1268",-88.6336978,37.0597271,"Paducah CCD","local_jail",335
"1269",-75.0985058,41.358286,"Blooming Grove township","local_jail",335
"1270",-109.399306,34.4558767,"St. Johns CCD","state_pris",333
"1271",-88.673028,32.7512002,"District 5","state_pris",333
"1272",-81.6794861,41.4781381,"Cleveland city","state_pris",333
"1273",-79.117913,34.5814756,"Back Swamp township","local_jail",333
"1274",-81.709593,38.2843877,"District 2","state_pris",332
"1275",-81.5810537,37.46916,"Browns Creek district","local_jail",332
"1276",-88.5298948,42.6749407,"Elkhorn city","local_jail",332
"1277",-85.4144949,32.6250868,"Auburn-Opelika CCD","local_jail",331
"1278",-89.5592301,32.6374717,"District 4","local_jail",331
"1279",-88.562352,44.0226282,"Oshkosh city","local_jail",331
"1280",-90.689476,35.847795,"Jonesboro township","local_jail",330
"1281",-75.3138917,38.2107913,"District 2, Central","local_jail",329
"1282",-76.8956729,40.8107467,"Penn township","state_pris",328
"1283",-84.0904834,37.118746,"London CCD","local_jail",328
"1284",-116.7950644,47.6741027,"Coeur d'Alene CCD","local_jail",327
"1285",-106.5218059,35.3198308,"Rio Rancho CCD","local_jail",327
"1286",-77.3264715,41.1355784,"Wayne township","local_jail",326
"1287",-81.2236901,35.0040687,"York CCD","local_jail",325
"1288",-86.297411,32.3786468,"Montgomery CCD","state_pris",324
"1289",-85.2283599,38.239426,"Shelbyville CCD","local_jail",323
"1290",-86.1394918,39.7748527,"Center township","state_pris",322
"1291",-77.9402561,34.9595313,"Kenansville township","state_pris",322
"1292",-77.5820698,43.1180146,"Brighton town","local_jail",321
"1293",-79.371323,35.039182,"Quewhiffle township","state_pris",320
"1294",-86.0761285,39.3993752,"Nineveh township","state_pris",319
"1295",-86.0856802,42.8960818,"Olive township","local_jail",319
"1296",-84.1996317,39.7773943,"Dayton city","state_pris",318
"1297",-82.5412925,37.5037553,"Pikeville CCD","local_jail",318
"1298",-101.8977362,35.0930172,"Amarillo CCD","local_jail",317
"1299",-79.994522,35.9725625,"High Point township","local_jail",315
"1300",-119.6345299,36.2485451,"Hanford CCD","local_jail",314
"1301",-157.7454893,21.4369085,"Koolaupoko CCD","state_pris",313
"1302",-89.572007,30.7605232,"District 1","local_jail",313
"1303",-111.860983,41.7371788,"Logan CCD","local_jail",312
"1304",-81.6755528,29.7326572,"Palatka CCD","local_jail",311
"1305",-86.0205856,40.0498703,"Noblesville township","local_jail",311
"1306",-91.6777599,41.9670481,"Cedar Rapids city","local_jail",311
"1307",-84.9326193,37.3037993,"Liberty CCD","local_jail",311
"1308",-76.671519,39.1738656,"District 1","local_jail",311
"1309",-87.3878111,39.4750826,"Harrison township","local_jail",309
"1310",-80.806311,33.4898172,"Orangeburg CCD","local_jail",307
"1311",-96.8256524,32.3607705,"Waxahachie CCD","local_jail",306
"1312",-121.6830515,39.2617865,"Live Oak CCD","state_pris",304
"1313",-84.1676163,39.0626027,"Batavia township","local_jail",304
"1314",-77.1698475,39.8809973,"Straban township","local_jail",304
"1315",-112.4409884,42.8832621,"Pocatello CCD","state_pris",303
"1316",-78.8741973,38.4360126,"Harrisonburg city","local_jail",303
"1317",-88.440266,43.7721533,"Fond du Lac city","local_jail",301
"1318",-95.7494311,41.0351639,"Glenwood township","state_pris",300
"1319",-95.3075356,35.7037575,"Muskogee CCD","local_jail",300
"1320",-97.2201437,30.1756504,"Bastrop CCD","local_jail",300
"1321",-120.3474615,47.5086709,"Wenatchee CCD","local_jail",300
"1322",-86.3531259,32.5050871,"Elmore CCD","state_pris",299
"1323",-146.5998673,64.6908322,"Fairbanks North Star census subarea","state_pris",299
"1324",-90.183663,35.1437969,"Mississippi township","local_jail",299
"1325",-85.386007,40.1915305,"Center township","local_jail",297
"1326",-66.3120048,18.41332,"Espinosa barrio","state_pris",296
"1327",-92.2284241,32.0019347,"District 6","local_jail",296
"1328",-81.7532438,33.5831066,"Aiken CCD","local_jail",296
"1329",-80.9904703,34.0151303,"Columbia CCD","state_pris",295
"1330",-89.6708323,39.7639077,"Capital township","local_jail",295
"1331",-81.2534141,41.7237074,"Painesville city","local_jail",295
"1332",-91.4056013,29.5144311,"District 4","local_jail",294
"1333",-94.4252783,39.2600683,"Liberty township","local_jail",294
"1334",-84.594503,38.0380024,"Lexington-Fayette Southwest CCD","fed_pris",293
"1335",-87.9826882,34.1403863,"Hamilton CCD","state_pris",293
"1336",-84.8760385,39.8410578,"Wayne township","local_jail",293
"1337",-79.1424458,35.5028731,"Township 5, East Sanford","state_pris",292
"1338",-97.4619621,42.9494169,"Utica township","state_pris",292
"1339",-85.5885011,42.2751635,"Kalamazoo city","local_jail",292
"1340",-92.8543061,44.7297558,"Hastings city","local_jail",292
"1341",-73.927295,42.8018398,"Schenectady city","local_jail",292
"1342",-85.0222291,32.3854287,"Phenix City CCD","local_jail",291
"1343",-122.9289251,46.1420243,"Longview-Kelso CCD","local_jail",291
"1344",-110.3241699,34.9152153,"Winslow-Holbrook CCD","local_jail",290
"1345",-93.9232942,33.4534998,"Garland township","local_jail",290
"1346",-159.3861793,21.983507,"Puhi-Hanamaulu CCD","state_pris",289
"1347",-97.4381222,27.7017677,"Corpus Christi CCD","state_pris",289
"1348",-84.630251,38.6584729,"Williamstown-Dry Ridge CCD","local_jail",288
"1349",-102.1564079,32.0135361,"Midland CCD","local_jail",288
"1350",-84.4571886,33.4670077,"Fayetteville CCD","local_jail",287
"1351",-85.829819,38.3128035,"New Albany township","local_jail",287
"1352",-71.0539976,42.9837228,"Brentwood town","local_jail",287
"1353",-75.4146621,39.6232487,"Mannington township","local_jail",287
"1354",-76.8633145,34.7948442,"Newport township","state_pris",286
"1355",-82.2076069,27.764514,"Wimauma-Riverview CCD","state_pris",285
"1356",-104.3968137,33.175964,"Dexter CCD","state_pris",285
"1357",-87.2570026,33.8384046,"Jasper CCD","local_jail",285
"1358",-86.9887762,35.8619013,"District 2","local_jail",284
"1359",-80.2353772,26.8179811,"Royal Palm Beach-West Jupiter CCD","state_pris",283
"1360",-105.067867,39.3531481,"Sedalia CCD","local_jail",282
"1361",-82.5153535,33.5219312,"Thomson CCD","local_jail",282
"1362",-74.9971151,39.4650072,"Vineland city","state_pris",281
"1363",-84.9451746,34.4679135,"Calhoun CCD","local_jail",281
"1364",-94.7417813,39.1225389,"Kansas City city","local_jail",281
"1365",-87.7305455,43.7460015,"Sheboygan city","local_jail",281
"1366",-86.826018,33.5144043,"Birmingham CCD","state_pris",280
"1367",-84.9610605,29.6141613,"Apalachicola CCD","state_pris",280
"1368",-84.8708808,38.1999632,"Frankfort CCD","local_jail",280
"1369",-71.8158757,42.6019793,"Fitchburg city","local_jail",280
"1370",-97.4452958,35.2326316,"Norman CCD","local_jail",280
"1371",-117.3594952,33.6005059,"Elsinore Valley CCD","state_pris",279
"1372",-71.356858,42.0526709,"Wrentham town","state_pris",279
"1373",-66.6460236,18.3829536,"Arrozal barrio","state_pris",279
"1374",-86.8424042,36.5116136,"District 9","local_jail",279
"1375",-82.6164125,32.3717179,"Soperton CCD","state_pris",278
"1376",-97.664528,40.8295901,"Baker precinct","state_pris",278
"1377",-83.7349328,37.144486,"Manchester CCD","local_jail",278
"1378",-80.8167246,41.2382556,"Warren city","local_jail",278
"1379",-79.0985505,34.655318,"Raft Swamp township","state_pris",277
"1380",-91.8680469,30.908444,"District 9","local_jail",277
"1381",-91.9417845,30.2636008,"District 7","local_jail",277
"1382",-109.4765137,31.4245336,"Douglas CCD","state_pris",276
"1383",-103.238836,34.502808,"Clovis CCD","local_jail",276
"1384",-83.3040804,36.2210393,"District 1","local_jail",276
"1385",-94.7211733,31.3437681,"Lufkin CCD","local_jail",276
"1386",-78.3929554,40.4310721,"Hollidaysburg borough","local_jail",275
"1387",-88.120628,42.7200966,"Dover town","state_pris",274
"1388",-77.8152845,40.869816,"Benner township","local_jail",274
"1389",-85.2597194,29.8090207,"Port St. Joe CCD","state_pris",273
"1390",-74.6076819,40.5697495,"Somerville borough","local_jail",273
"1391",-90.6039968,41.5541036,"Davenport city","local_jail",272
"1392",-117.7081982,44.7575235,"Baker City CCD","state_pris",271
"1393",-80.8940155,35.7734058,"Statesville township","local_jail",271
"1394",-96.0969009,33.1254747,"Greenville CCD","local_jail",271
"1395",-85.6894485,40.0897656,"Anderson township","local_jail",270
"1396",-83.9422015,39.6834002,"Xenia city","local_jail",270
"1397",-76.2092102,40.6798537,"Pottsville city","local_jail",270
"1398",-103.5159019,32.9043379,"Lovington CCD","state_pris",269
"1399",-110.8204288,33.527945,"Globe-Miami CCD","state_pris",267
"1400",-82.1705628,32.5468416,"Twin City CCD","state_pris",267
"1401",-85.615562,40.5334812,"Center township","local_jail",267
"1402",-89.8298259,35.2463642,"District 4","fed_pris",266
"1403",-85.6157001,37.9652076,"Shepherdsville Southeast CCD","state_pris",265
"1404",-87.2567754,37.2126193,"Greenville CCD","local_jail",265
"1405",-89.0458404,33.2069157,"District 1","local_jail",265
"1406",-106.3454158,42.8367326,"Casper CCD","local_jail",265
"1407",-91.7546852,32.7203578,"District 2","state_pris",264
"1408",-82.8366038,31.4562948,"Douglas CCD","local_jail",264
"1409",-91.2308859,30.4860039,"District 6","local_jail",264
"1410",-82.2999349,33.6014372,"Appling CCD","local_jail",261
"1411",-76.600389,38.5482265,"District 2, Prince Frederick","local_jail",261
"1412",-80.2725272,40.589946,"Hopewell township","local_jail",261
"1413",-122.4891174,38.0020754,"San Rafael CCD","local_jail",259
"1414",-92.1487016,30.9818372,"District 6","local_jail",259
"1415",-79.5066906,42.2417575,"Chautauqua town","local_jail",259
"1416",-98.0249882,29.8948633,"San Marcos CCD","local_jail",259
"1417",-85.2255529,37.5441237,"Lebanon CCD","local_jail",258
"1418",-82.0367528,37.8119473,"Western district","local_jail",258
"1419",-96.4059612,30.1643522,"Brenham CCD","state_pris",257
"1420",-92.0081836,34.2243578,"Vaugine township","local_jail",257
"1421",-79.1801085,38.0167025,"Riverheads district","state_pris",256
"1422",-79.7244642,39.8993201,"Uniontown city","local_jail",256
"1423",-82.2639168,37.1963489,"Sand Lick district","local_jail",256
"1424",-82.0774618,28.6008637,"Bushnell-Center Hill CCD","local_jail",255
"1425",-96.2903014,32.482044,"Kaufman CCD","local_jail",255
"1426",-112.4409884,42.8832621,"Pocatello CCD","local_jail",254
"1427",-90.567401,38.2407479,"Central township","local_jail",254
"1428",-78.0798707,34.1352401,"Town Creek township","local_jail",254
"1429",-85.7518744,35.735736,"District 4","local_jail",254
"1430",-91.4965984,44.8143512,"Eau Claire city","local_jail",254
"1431",-97.3426776,37.6906938,"Wichita city","state_pris",253
"1432",-77.5212218,37.4028359,"Dale district","state_pris",252
"1433",-80.7417392,39.891785,"District 2","state_pris",252
"1434",-104.4499704,43.7460962,"Newcastle CCD","state_pris",252
"1435",-100.2629714,28.4918138,"Eagle Pass CCD","local_jail",252
"1436",-90.9820436,32.9210258,"District 3","state_pris",251
"1437",-76.6570541,38.264976,"District 3, Leonardtown","local_jail",251
"1438",-118.4179218,34.2495663,"San Fernando Valley CCD","state_pris",250
"1439",-81.6233964,31.9141393,"Hinesville CCD","local_jail",250
"1440",-93.6223495,32.8245629,"District 4","local_jail",250
"1441",-71.665421,43.311685,"Boscawen town","local_jail",250
"1442",-77.3119719,38.1363796,"Port Royal district","local_jail",250
"1443",-78.567479,39.3864788,"Gore district","local_jail",250
"1444",-72.6746304,42.3270445,"Northampton city","local_jail",249
"1445",-84.8752193,39.122171,"Lawrenceburg township","local_jail",248
"1446",-74.8375609,39.0879517,"Middle township","local_jail",248
"1447",-80.4396854,35.6746647,"Salisbury township","local_jail",248
"1448",-89.6434858,44.9618663,"Wausau city","local_jail",248
"1449",-80.2605782,36.1032616,"Winston township","state_pris",247
"1450",-80.2626071,38.1626909,"Little Levels district","state_pris",246
"1451",-122.2763008,38.3381868,"Napa CCD","local_jail",246
"1452",-98.1904625,29.7588229,"New Braunfels CCD","local_jail",246
"1453",-111.9600118,43.4742292,"Idaho Falls CCD","local_jail",245
"1454",-87.6109484,40.1041251,"Danville township","local_jail",245
"1455",-87.6929336,37.5386369,"Dixon CCD","local_jail",245
"1456",-76.7514612,39.2082716,"District 1, Elkridge","local_jail",245
"1457",-80.8307389,35.2087069,"Township 1, Charlotte","state_pris",244
"1458",-111.456573,47.4558083,"Great Falls CCD","local_jail",243
"1459",-97.8732276,36.3863507,"Enid CCD","local_jail",243
"1460",-76.2971486,37.0480303,"Hampton city","local_jail",243
"1461",-82.6432658,30.1744485,"Lake City CCD","local_jail",241
"1462",-86.5143466,39.2109661,"Bloomington township","local_jail",241
"1463",-90.0245659,35.6897512,"Monroe township","state_pris",240
"1464",-86.0925815,39.4841753,"Franklin township","local_jail",240
"1465",-84.2684403,36.1663169,"District 4","local_jail",240
"1466",-111.702512,43.9471477,"St. Anthony CCD","state_pris",239
"1467",-86.2477912,30.6460967,"De Funiak Springs CCD","local_jail",239
"1468",-84.1360443,34.2189302,"Cumming CCD","local_jail",239
"1469",-80.541073,34.9944531,"Monroe township","local_jail",239
"1470",-119.5707238,47.2633897,"Ephrata-Soap Lake CCD","local_jail",239
"1471",-81.4861462,35.8489762,"Hudson township","state_pris",238
"1472",-81.178943,35.3536638,"Dallas township","state_pris",238
"1473",-82.518741,31.5377827,"Alma CCD","local_jail",238
"1474",-88.9582232,39.846304,"Decatur township","local_jail",238
"1475",-81.9498185,35.3666839,"Rutherfordton township","state_pris",237
"1476",-89.7372893,43.4694081,"Baraboo city","local_jail",237
"1477",-114.4867944,42.5402759,"Twin Falls CCD","local_jail",236
"1478",-81.7532438,33.5831066,"Aiken CCD","state_pris",235
"1479",-88.1973232,40.1101258,"Cunningham township","local_jail",235
"1480",-88.9699117,40.4757767,"Bloomington City township","local_jail",235
"1481",-82.4249247,40.0697323,"Newark city","local_jail",235
"1482",-76.5279582,37.6068281,"Saluda district","local_jail",235
"1483",-86.9747527,34.8213418,"Athens CCD","local_jail",234
"1484",-84.1605995,36.744923,"Williamsburg CCD","local_jail",234
"1485",-77.0048612,39.5793175,"District 7, Westminster","local_jail",234
"1486",-73.5164526,44.6922887,"Plattsburgh town","local_jail",234
"1487",-77.5427155,35.8981018,"Township 1, Tarboro","local_jail",234
"1488",-86.2612692,36.20807,"District 20","local_jail",234
"1489",-89.8660386,33.4102933,"District 4","state_pris",233
"1490",-87.1178905,35.7470687,"District 6","local_jail",233
"1491",-114.0387933,33.7276249,"Parker CCD","local_jail",232
"1492",-80.8099692,27.2036636,"Okeechobee CCD","local_jail",232
"1493",-90.5649156,41.5065844,"Rock Island township","local_jail",232
"1494",-82.7539974,37.8131419,"Paintsville CCD","local_jail",231
"1495",-84.424568,42.2960734,"Blackman charter township","local_jail",231
"1496",-92.4333604,35.0885706,"Cadron township","local_jail",230
"1497",-75.851229,39.634795,"District 3, Elkton","local_jail",230
"1498",-88.6204,34.3802636,"District 1","local_jail",230
"1499",-97.0672393,36.0912129,"Stillwater CCD","local_jail",230
"1500",-86.0867932,33.4434418,"Talladega CCD","local_jail",229
"1501",-86.8448129,34.1575659,"Cullman CCD","local_jail",228
"1502",-89.9438411,29.9528989,"District C","local_jail",228
"1503",-89.9452804,34.8229304,"District 5","local_jail",228
"1504",-86.4226306,35.8313598,"District 13","local_jail",228
"1505",-82.8183693,29.1885107,"Cedar Key-Yankeetown CCD","state_pris",227
"1506",-81.6440436,31.6748701,"Ludowici South CCD","state_pris",227
"1507",-85.2252822,30.7712746,"Marianna CCD","local_jail",227
"1508",-86.41502,39.4075355,"Washington township","local_jail",227
"1509",-84.5926209,37.0722593,"Somerset CCD","local_jail",227
"1510",-80.2554024,35.8564806,"Lexington township","local_jail",227
"1511",-87.3749259,36.1719097,"District 1","local_jail",227
"1512",-90.5177437,30.0948707,"District 4","local_jail",226
"1513",-74.7983066,40.262722,"Ewing township","state_pris",225
"1514",-88.5502577,33.4527343,"District 5","local_jail",225
"1515",-98.3579507,40.9221933,"Grand Island city","local_jail",225
"1516",-77.1958849,42.8934933,"Hopewell town","local_jail",225
"1517",-79.8525766,34.3205465,"Darlington CCD","local_jail",225
"1518",-73.9096936,41.6685901,"Poughkeepsie town","state_pris",224
"1519",-96.5185032,33.586236,"East Grayson CCD","local_jail",224
"1520",-81.1191836,36.1396327,"Wilkesboro township","state_pris",223
"1521",-85.8378219,41.2182266,"Wayne township","local_jail",223
"1522",-80.3458066,40.9956167,"New Castle city","local_jail",223
"1523",-77.5078723,36.7055214,"District 3","local_jail",223
"1524",-120.7930617,38.7429945,"Placerville CCD","local_jail",222
"1525",-81.5187209,41.4502168,"Highland Hills village","local_jail",222
"1526",-79.8024231,35.7106,"Asheboro township","state_pris",220
"1527",-124.1487181,43.5188643,"North Bayside CCD","state_pris",220
"1528",-93.0478828,34.4943378,"Hot Springs township","local_jail",220
"1529",-87.5615667,38.6295359,"Vincennes township","local_jail",220
"1530",-92.1930338,30.5418394,"District 1","local_jail",220
"1531",-122.4519643,45.7642143,"Battle Ground CCD","state_pris",219
"1532",-122.3437583,40.5578719,"Redding CCD","local_jail",219
"1533",-73.6753209,42.7358118,"Troy city","local_jail",219
"1534",-71.0201725,42.33196,"Boston city","state_pris",218
"1535",-83.749086,31.1280909,"Moultrie CCD","local_jail",217
"1536",-79.3530443,33.4183032,"Georgetown CCD","local_jail",217
"1537",-104.4648643,36.4046068,"Springer CCD","state_pris",216
"1538",-80.5663309,33.1882512,"St. George CCD","local_jail",216
"1539",-86.086588,35.4899587,"District 1","local_jail",216
"1540",-71.1613574,42.7002733,"Lawrence city","local_jail",215
"1541",-103.6083941,40.2456707,"Brush CCD","state_pris",214
"1542",-86.3216681,34.3095637,"Guntersville CCD","local_jail",214
"1543",-85.7709659,39.525925,"Addison township","local_jail",214
"1544",-89.3603377,31.38403,"District 2","local_jail",214
"1545",-106.1380545,32.6790744,"Alamogordo CCD","local_jail",214
"1546",-81.2210462,35.6496216,"Newton township","local_jail",214
"1547",-123.0955868,44.6046912,"Albany CCD","local_jail",214
"1548",-87.8807328,43.3842445,"Port Washington city","local_jail",214
"1549",-73.9701736,40.7765574,"Manhattan borough","state_pris",213
"1550",-80.314851,37.9437967,"Eastern district","state_pris",213
"1551",-122.9563502,39.0444878,"Lakeport CCD","local_jail",213
"1552",-83.6533178,31.6951143,"Ashburn-Sycamore CCD","state_pris",212
"1553",-84.2413329,32.6614653,"Carsonville CCD","state_pris",211
"1554",-89.4658661,43.5489507,"Portage city","local_jail",211
"1555",-108.8566262,43.2411072,"Wind River CCD","state_pris",210
"1556",-84.7810767,37.6538573,"Danville CCD","local_jail",210
"1557",-96.0293837,35.6458491,"Okmulgee CCD","local_jail",210
"1558",-122.8853806,42.3563009,"Medford CCD","local_jail",210
"1559",-83.4094288,36.0265092,"District 1","local_jail",210
